# id,name,mesonet,lat,lon,elevation,agl,cit,state,country,active
UIUC,Urbana, IL,gpsmet,40.099998474121094,-88.22000122070312,264.3999938964844,-9999.0,null,null,null,true
HCOT1,HAMBLEN CO. HQ,RAWS,36.25693893432617,-83.27694702148438,354.5,-9999.0,null,null,null,true
KFWH1,KII,RAWS,21.688060760498047,-157.9522247314453,1.5,-9999.0,null,null,null,true
DBCM8,DRY BLOOD CREEK,RAWS,47.244171142578125,-108.35749816894531,914.4000244140625,-9999.0,null,null,null,true
BBN,BOUNTIFUL BENCH                  UT US KSL,utmesnet,40.88999938964844,-111.8499984741211,1521.0,-9999.0,null,null,null,true
MEGT2,MCGREGOR,RAWS,31.38389015197754,-97.41278076171875,193.89999389648438,-9999.0,null,null,null,true
AR307,W6KL Burbank                      CA US,APRSWXNET,34.16999816894531,-118.33300018310547,172.1999969482422,-9999.0,null,null,null,true
GUIN7,GUION FARM,RAWS,35.213050842285156,-82.58999633789062,792.5,-9999.0,null,null,null,true
AR300,KB8GQ Galloway                    OH US,APRSWXNET,39.91749954223633,-83.15167236328125,249.0,-9999.0,null,null,null,true
AR301,N5KUK Norman                      OK US,APRSWXNET,35.220829010009766,-97.41416931152344,371.0,-9999.0,null,null,null,true
AR304,AA6HF-5 Cathedral City            CA US,APRSWXNET,33.8489990234375,-116.48082733154297,134.0,-9999.0,null,null,null,true
AR302,N4NW Stafford County              VA US,APRSWXNET,38.46083068847656,-77.46282958984375,101.5,-9999.0,null,null,null,true
AR303,DL1BLU Schortens                     DE,APRSWXNET,53.54716873168945,7.954999923706055,5.0,-9999.0,null,null,null,true
DYER,DYER - WALLACE FARMS             NV US DRI,utmesnet,37.60609817504883,-117.98860931396484,1488.300048828125,-9999.0,null,null,null,true
ELKC2,ELK RIVER                        CO US SNOTEL,utmesnet,40.849998474121094,-106.97000122070312,2652.10009765625,-9999.0,null,null,null,true
STP1,Alma, WI,ddmet,44.29999923706055,-91.9000015258789,384.1000061035156,-9999.0,null,null,null,true
BCP,BLACK CROOK PEAK                 UT US TOOELE,utmesnet,39.99004364013672,-112.54368591308594,2827.0,-9999.0,null,null,null,true
ALSA2,PORT ALSWORTH,RAWS,60.195560455322266,-154.31971740722656,97.80000305175781,-9999.0,null,null,null,true
DMTMT,Lothair                          MT US MCSCN,utmesnet,48.46556091308594,-111.22611236572266,1002.7999877929688,-9999.0,null,null,null,true
QHIA3,HOPI,RAWS,35.862220764160156,-110.6147232055664,1707.5,-9999.0,null,null,null,true
AR330,KC1EO Hollis                      NH US,APRSWXNET,42.783329010009766,-71.5961685180664,97.5,-9999.0,null,null,null,true
SORI1,SOMSEN RANCH                     ID US SNOTEL,utmesnet,42.95000076293945,-111.37000274658203,2072.89990234375,-9999.0,null,null,null,true
CWFO3,CROW FLAT,RAWS,43.83306121826172,-118.94999694824219,1563.5999755859375,-9999.0,null,null,null,true
AR328,N1EO Center Harbor                NH US,APRSWXNET,43.69832992553711,-71.4854965209961,252.39999389648438,-9999.0,null,null,null,true
CLFO3,CALIMUS,RAWS,42.63138961791992,-121.5594482421875,2020.5,-9999.0,null,null,null,true
AR329,KA1RVR Epping                     NH US,APRSWXNET,43.061668395996094,-71.06199645996094,54.599998474121094,-9999.0,null,null,null,true
MNRN2,MOUNT ROSE SKI                   NV US CNRFC,utmesnet,39.32917022705078,-119.88722229003906,2535.89990234375,-9999.0,null,null,null,true
AWSC1,WASCO 5SW                        CA US,utmesnet,35.54389953613281,-119.4092025756836,83.80000305175781,-9999.0,null,null,null,true
AR323,KF6YUA Sebastopol                 CA US,APRSWXNET,38.379329681396484,-122.8221664428711,70.0999984741211,-9999.0,null,null,null,true
AR320,K6TZ Diablo Peak                  CA US,APRSWXNET,34.029170989990234,-119.78433227539062,762.0,-9999.0,null,null,null,true
AR321,K6DJR W.Menlo Park                CA US,APRSWXNET,37.434669494628906,-122.20632934570312,35.099998474121094,-9999.0,null,null,null,true
AR327,AA1EO Weirs Beach                 NH US,APRSWXNET,43.60683059692383,-71.4469985961914,162.0,-9999.0,null,null,null,true
SDRI4,River Woods _ Des Moines               KCCI-TV,snet,41.55788040161133,-93.57745361328125,304.79998779296875,-9999.0,null,null,null,true
CHKF1,CHEKIKA,RAWS,25.625,-80.57943725585938,1.5,-9999.0,null,null,null,true
OPLC1,OPAL MOUNTAIN,RAWS,35.154170989990234,-117.17555236816406,987.5999755859375,-9999.0,null,null,null,true
ORRI1,ORCHARD RANGE SITE               ID US SNOTEL,utmesnet,43.33000183105469,-116.0,960.0999755859375,-9999.0,null,null,null,true
AR319,VK7HDM-5 Hobart                  TAS AU,APRSWXNET,-42.74782943725586,147.2671661376953,41.0,-9999.0,null,null,null,true
MSB1,Bobo, MS,ddmet,34.11000061035156,-90.69000244140625,50.66999816894531,-9999.0,null,null,null,true
AR317,KV4EE Fort Wayne                  IN US,APRSWXNET,41.15950012207031,-85.13217163085938,243.8000030517578,-9999.0,null,null,null,true
WTHS1,WITHERBEE,RAWS,33.15943908691406,-79.83055877685547,18.0,-9999.0,null,null,null,true
LSFC1,LSF LAS FLORES,RAWS,33.28889083862305,-117.43888854980469,30.5,-9999.0,null,null,null,true
AR312,WA6BAY-1 Soquel                   CA US,APRSWXNET,37.00217056274414,-121.93633270263672,137.5,-9999.0,null,null,null,true
AR310,K4ROK-10 Farmville                NC US,APRSWXNET,35.55282974243164,-77.60166931152344,23.799999237060547,-9999.0,null,null,null,true
AR316,N7OKG Deer Park                   WA US,APRSWXNET,48.085330963134766,-117.43183135986328,790.0,-9999.0,null,null,null,true
AR313,WB6AHC-1 San Jose                 CA US,APRSWXNET,37.21833038330078,-121.85166931152344,81.4000015258789,-9999.0,null,null,null,true
SSMM8,SOUTH SAWMILL CREEK,RAWS,47.561668395996094,-107.5283432006836,1002.7999877929688,-9999.0,null,null,null,true
BTTM5,BAUDETTE,RAWS,48.67028045654297,-94.616943359375,339.20001220703125,-9999.0,null,null,null,true
HTV1,Hartsville, TN,ddmet,36.36000061035156,-86.08999633789062,196.88999938964844,-9999.0,null,null,null,true
NP107,Brandywine Shl,nosports,38.98699951171875,-75.11299896240234,0.0,-9999.0,null,null,null,true
ACHC1,CHOWCHILLA                       CA US,utmesnet,37.157501220703125,-120.25,74.69999694824219,-9999.0,null,null,null,true
NP109,Piney Point,nosports,38.132999420166016,-76.53299713134766,0.0,-9999.0,null,null,null,true
BALV1,BALL MTN LAKE,HADS,43.13330078125,-72.0999984741211,499.3680114746094,-9999.0,null,null,null,true
TFRAN,Franklin Falls                   WA US WA DOT,utmesnet,47.43000030517578,-121.43000030517578,829.0999755859375,-9999.0,null,null,null,true
LWRT2,SANTA ANA NWR,RAWS,26.07832908630371,-98.15693664550781,27.399999618530273,-9999.0,null,null,null,true
WRSM8,WISE RIVER,RAWS,45.783050537109375,-112.93305206298828,1738.5999755859375,-9999.0,null,null,null,true
SDRC1,SOLDIER MTN,RAWS,40.925559997558594,-121.58556365966797,1130.800048828125,-9999.0,null,null,null,true
CAFO3,CABIN LAKE,RAWS,43.5,-121.04972076416016,1385.300048828125,-9999.0,null,null,null,true
GSTO3,GERBER RESERVOIR                 OR US SNOTEL,utmesnet,42.20000076293945,-121.12999725341797,1478.0,-9999.0,null,null,null,true
TMETH,Methow                           WA US WA DOT,utmesnet,48.08000183105469,-120.01000213623047,313.8999938964844,-9999.0,null,null,null,true
MCRU1,MONTE CRISTO                     UT US SNOTEL,utmesnet,41.470001220703125,-111.5,2731.0,-9999.0,null,null,null,true
BDVA2,BROADVIEW,RAWS,60.48305892944336,-149.76666259765625,190.5,-9999.0,null,null,null,true
PTRH1,PTA RANGE 17,RAWS,19.745559692382812,-155.62583923339844,1734.300048828125,-9999.0,null,null,null,true
TLST2,Tulia 2NE,WT-Meso,34.542938232421875,-101.7405014038086,1060.0999755859375,-9999.0,null,null,null,true
CSKC1,COOSKIE MOUNTAIN (BLM)           CA US CNRFC,utmesnet,40.26667022705078,-124.25,898.9000244140625,-9999.0,null,null,null,true
IMWN2,IMMIGRATION WASH,RAWS,37.91999816894531,-114.16665649414062,1898.9000244140625,-9999.0,null,null,null,true
SOAC1,SODA CREEK,RAWS,39.424720764160156,-122.97693634033203,525.7999877929688,-9999.0,null,null,null,true
MITC2,MITCHELL CANYON,RAWS,39.6019401550293,-107.35832977294922,2852.89990234375,-9999.0,null,null,null,true
MITC1,MITCHELL MEADOW                  CA US CNRFC,utmesnet,36.73332977294922,-118.71666717529297,2956.89990234375,-9999.0,null,null,null,true
TAST2,Tahoka 3NE,WT-Meso,33.20746994018555,-101.78019714355469,946.0999755859375,-9999.0,null,null,null,true
TRUC1,TRUCKEE #2                       CA US SNOTEL,utmesnet,39.29999923706055,-120.19999694824219,1951.0,-9999.0,null,null,null,true
NKTA2,Nikiski,nosports,60.68299865722656,-151.3979949951172,0.0,-9999.0,null,null,null,true
DNFI1,DENT,RAWS,46.62166976928711,-116.21806335449219,518.2000122070312,-9999.0,null,null,null,true
EDTF1,EDDY TOWER,RAWS,30.548059463500977,-82.34805297851562,39.900001525878906,-9999.0,null,null,null,true
BUFN6,Buffalo, NY,nosports,42.87699890136719,-78.88999938964844,178.3000030517578,-9999.0,null,null,null,true
LARU1,LARB HOLLOW,RAWS,38.133338928222656,-111.31722259521484,2575.60009765625,-9999.0,null,null,null,true
RSBU1,ROSEBUD,RAWS,41.609439849853516,-113.5905532836914,1520.0,-9999.0,null,null,null,true
BUFN2,BUFFALO CREEK,RAWS,40.581668853759766,-119.79000091552734,851.5999755859375,-9999.0,null,null,null,true
FADT2,MCFADDEN,RAWS,29.706939697265625,-94.1208267211914,1.5,-9999.0,null,null,null,true
SMLI4,West Bend - Mallard                    KCCI-TV,snet,42.934879302978516,-94.68212127685547,387.1000061035156,-9999.0,null,null,null,true
BKIN7,BACK ISLAND,RAWS,34.532779693603516,-77.7216567993164,6.099999904632568,-9999.0,null,null,null,true
C0498,CW0498 Powder Springs             GA US,APRSWXNET,33.885169982910156,-84.6729965209961,300.0,-9999.0,null,null,null,true
MKZO3,MCKENZIE                         OR US SNOTEL,utmesnet,44.20000076293945,-121.87000274658203,1463.0,-9999.0,null,null,null,true
C0499,CW0499 Grand Rapids               MN US,APRSWXNET,47.236000061035156,-93.54499816894531,393.20001220703125,-9999.0,null,null,null,true
C0496,CW0496 Raleigh                    NC US,APRSWXNET,35.96849822998047,-78.6884994506836,112.0,-9999.0,null,null,null,true
SLIDE,SLIDE MOUNTAIN                   NV US DRI,utmesnet,39.307220458984375,-119.8838882446289,2941.300048828125,-9999.0,null,null,null,true
C0493,CW0493 Gresham                    OR US,APRSWXNET,45.49633026123047,-122.427001953125,96.0,-9999.0,null,null,null,true
ONFG1,OCONEE #1,RAWS,33.20806121826172,-83.71333312988281,145.10000610351562,-9999.0,null,null,null,true
JCTN2,CARSON CITY                      NV US NV DOT,utmesnet,39.119361877441406,-119.77488708496094,1449.5999755859375,-9999.0,null,null,null,true
ADKA2,Adak Island, AK,NOS-NWLON,51.862998962402344,-176.6320037841797,0.0,-9999.0,null,null,null,true
KPTN6,Kings Point, NY,nosports,40.810001373291016,-73.76499938964844,0.0,-9999.0,null,null,null,true
TR400,MOUNTAIN LION,RAWS,39.825279235839844,-109.97944641113281,1671.199951171875,-9999.0,null,null,null,true
UDWC1,UNDERWOOD,RAWS,40.7216682434082,-123.49527740478516,792.5,-9999.0,null,null,null,true
RTFC1,FORT ORD #1,RAWS,36.62889099121094,-121.75723266601562,176.1999969482422,-9999.0,null,null,null,true
BLD,BLUE DOME                        ID US ARL FRD,utmesnet,44.08000183105469,-112.83999633789062,1740.0999755859375,-9999.0,null,null,null,true
C0465,CW0465 Sherman                    CT US,APRSWXNET,41.57500076293945,-73.47450256347656,203.0,-9999.0,null,null,null,true
BLK,BLACKFOOT NEW                    ID US ARL FRD,utmesnet,43.18986511230469,-112.33329772949219,1377.699951171875,-9999.0,null,null,null,true
C1795,CW1795 Powell                     WY US,APRSWXNET,44.7599983215332,-108.77867126464844,1330.0,-9999.0,null,null,null,true
C0464,CW0464 Tehachapi                  CA US,APRSWXNET,35.1505012512207,-118.51667022705078,1280.0,-9999.0,null,null,null,true
C1793,CW1793 Castle Rock                CO US,APRSWXNET,39.39466857910156,-104.80549621582031,1981.199951171875,-9999.0,null,null,null,true
C1792,CW1792 Saratoga                   CA US,APRSWXNET,37.27450180053711,-122.02217102050781,114.30000305175781,-9999.0,null,null,null,true
SND,SUNDANCE - ARROWHEAD             UT US AVALANCHE,utmesnet,40.368499755859375,-111.59339904785156,2514.89990234375,-9999.0,null,null,null,true
PMNA2,POORMAN,RAWS,64.1050033569336,-155.5580596923828,285.0,-9999.0,null,null,null,true
C0467,CW0467 Duxbury                    MA US,APRSWXNET,42.04814910888672,-70.69035339355469,20.0,-9999.0,null,null,null,true
C1799,CW1799 Colorado Springs           CO US,APRSWXNET,38.92583084106445,-104.76866912841797,2026.9000244140625,-9999.0,null,null,null,true
C1798,CW1798 Logan Village                 AU,APRSWXNET,-27.760000228881836,153.14300537109375,17.0,-9999.0,null,null,null,true
SNI,SNOWBASIN-MID. BOWL              UT US SNOWNET,utmesnet,41.199501037597656,-111.85900115966797,2256.10009765625,-9999.0,null,null,null,true
NCLO3,NEW CRESCENT LAKE                OR US SNOTEL,utmesnet,43.47999954223633,-121.97000122070312,1463.0,-9999.0,null,null,null,true
SNM,SUNDANCE - MID MNT               UT US AVALANCHE,utmesnet,40.3739013671875,-111.59400177001953,2286.89990234375,-9999.0,null,null,null,true
MDDW4,MIDDLE POWDER                    WY US SNOTEL,utmesnet,43.630001068115234,-107.18000030517578,2364.89990234375,-9999.0,null,null,null,true
SNV,DV - DALY WEST                   UT US SNOWNET,utmesnet,40.61520004272461,-111.51100158691406,2499.10009765625,-9999.0,null,null,null,true
NP120,Oakland,nosports,37.77199935913086,-122.2979965209961,0.0,-9999.0,null,null,null,true
SNZ,BOUNTIFUL/F G  HOUSE             UT US SNOWNET,utmesnet,40.87540054321289,-111.87159729003906,1450.9000244140625,-9999.0,null,null,null,true
C0476,CW0476 De Graff                   OH US,APRSWXNET,40.326171875,-83.9000015258789,305.0,-9999.0,null,null,null,true
NP115,North Jetty,nosports,29.357999801635742,-94.7249984741211,0.0,-9999.0,null,null,null,true
C0472,CW0472 Wheaton                    IL US,APRSWXNET,41.87866973876953,-88.09200286865234,230.0,-9999.0,null,null,null,true
LAAW3,LAONA,RAWS,45.55556106567383,-88.68000030517578,481.6000061035156,-9999.0,null,null,null,true
QADW4,QUADRANT,RAWS,44.9275016784668,-110.99138641357422,2415.5,-9999.0,null,null,null,true
MCRW4,MILL CREEK,RAWS,44.45555114746094,-107.44917297363281,2712.10009765625,-9999.0,null,null,null,true
NP118,Little Rapids, MI,nosports,46.48500061035156,-84.30000305175781,185.0,-9999.0,null,null,null,true
C0479,CW0479 E. Brunswick               NJ US,APRSWXNET,40.43767166137695,-74.38999938964844,41.0,-9999.0,null,null,null,true
POTI1,POTLATCH,RAWS,46.98305892944336,-116.98306274414062,762.0,-9999.0,null,null,null,true
MLLO3,MILLER,RAWS,46.022499084472656,-123.27166748046875,314.20001220703125,-9999.0,null,null,null,true
H300A,Hanford 300 Area                 WA US HMMN,utmesnet,46.36399841308594,-119.28600311279297,118.9000015258789,-9999.0,null,null,null,true
OMTC1,OAK MOUNTAIN,RAWS,41.00638961791992,-121.98306274414062,813.7999877929688,-9999.0,null,null,null,true
MBHP,BIG HOLE PASS                    MT US MT DOT,utmesnet,45.31544876098633,-113.30973815917969,2255.5,-9999.0,null,null,null,true
NP110,S. Craney Island,nosports,36.88199996948242,-76.33999633789062,0.0,-9999.0,null,null,null,true
NP111,Cape Henry,nosports,36.93000030517578,-76.00700378417969,0.0,-9999.0,null,null,null,true
C0443,CW0443 Sacramento                 CA US,APRSWXNET,38.60483169555664,-121.40733337402344,10.0,-9999.0,null,null,null,true
C1775,CW1775 Lake Ozark                 MO US,APRSWXNET,38.21833038330078,-92.71282958984375,210.0,-9999.0,null,null,null,true
C0444,CW0444 Marlborough                CT US,APRSWXNET,41.63383102416992,-72.43917083740234,145.0,-9999.0,null,null,null,true
C1773,CW1773 Lisbon                     NH US,APRSWXNET,44.21200180053711,-71.91632843017578,184.39999389648438,-9999.0,null,null,null,true
C1772,CW1772 Yucaipa                    CA US,APRSWXNET,34.015830993652344,-117.02616882324219,826.0,-9999.0,null,null,null,true
GPKM8,GATES PARK,RAWS,47.7894401550293,-112.93916320800781,1615.4000244140625,-9999.0,null,null,null,true
HKFW1,HUCKLEBERRY RIDGE,RAWS,46.50027847290039,-123.40055847167969,739.0999755859375,-9999.0,null,null,null,true
C1778,CW1778 Ft.Collins                 CO US,APRSWXNET,40.563331604003906,-105.05783081054688,1555.0,-9999.0,null,null,null,true
C0445,CW0445 N. Ft. Myers               FL US,APRSWXNET,26.72783088684082,-81.89199829101562,8.0,-9999.0,null,null,null,true
C1777,CW1777 Dania Beach                FL US,APRSWXNET,26.059669494628906,-80.1866683959961,2.0,-9999.0,null,null,null,true
PKTN,Pikton, OH,gpsmet,39.04999923706055,-83.0199966430664,176.57000732421875,-9999.0,null,null,null,true
TXAR,Arlington, TX,gpsmet,32.7599983215332,-97.05999755859375,169.9600067138672,-9999.0,null,null,null,true
VIOC1,MANZANITA LAKE,RAWS,40.53971862792969,-121.58027648925781,1725.199951171875,-9999.0,null,null,null,true
TXAM,Amarillo, TX,gpsmet,35.150001525878906,-101.87999725341797,1124.030029296875,-9999.0,null,null,null,true
LRCM8,LITTLE ROCK CREEK,RAWS,46.03778076171875,-114.26249694824219,1678.5,-9999.0,null,null,null,true
TXAU,Austin, TX,gpsmet,30.309999465942383,-97.76000213623047,218.4199981689453,-9999.0,null,null,null,true
C0454,CW0454 Millersville               MD US,APRSWXNET,39.08517074584961,-76.61766815185547,23.0,-9999.0,null,null,null,true
C0453,CW0453 Gretna                     NE US,APRSWXNET,41.159671783447266,-96.1916732788086,382.0,-9999.0,null,null,null,true
C0451,CW0451 Taunton                    MA US,APRSWXNET,41.900001525878906,-71.13382720947266,5.0,-9999.0,null,null,null,true
C1780,CW1780 Wytheville                 VA US,APRSWXNET,36.92250061035156,-81.1728286743164,817.0,-9999.0,null,null,null,true
C0458,CW0458 Rancho Cordova             CA US,APRSWXNET,38.58700180053711,-121.31616973876953,23.0,-9999.0,null,null,null,true
BCRU1,BRYSON CANYON,RAWS,39.27888870239258,-109.22083282470703,1621.5,-9999.0,null,null,null,true
C1789,CW1789 Loma Rica                  CA US,APRSWXNET,39.288330078125,-121.33616638183594,399.0,-9999.0,null,null,null,true
C0456,CW0456 Brandon                    MS US,APRSWXNET,32.359500885009766,-89.97132873535156,96.56999969482422,-9999.0,null,null,null,true
BSMK,Bismark, ND,gpsmet,46.81999969482422,-100.81999969482422,572.6400146484375,-9999.0,null,null,null,true
WWRC1,WWOLF,RAWS,37.850830078125,-119.6500015258789,2438.39990234375,-9999.0,null,null,null,true
TRUN5,TRUCHAS,RAWS,36.05889129638672,-105.76917266845703,2542.0,-9999.0,null,null,null,true
OKNC1,OAK KNOLL,RAWS,41.83832931518555,-122.84889221191406,591.2999877929688,-9999.0,null,null,null,true
NP167,Ship John Shoal, NJ,nosports,39.30500030517578,-75.375,0.0,-9999.0,null,null,null,true
C1753,CW1753 Portland                   OR US,APRSWXNET,45.50749969482422,-122.73117065429688,240.0,-9999.0,null,null,null,true
NP168,York River E. Rear Rang, VA,nosports,37.25,-76.33300018310547,0.0,-9999.0,null,null,null,true
C0420,CW0420 Beaverton                  OR US,APRSWXNET,45.52000045776367,-122.88300323486328,58.0,-9999.0,null,null,null,true
C1750,CW1750 Brighton                      UK,APRSWXNET,50.88467025756836,-0.21283000707626343,203.0,-9999.0,null,null,null,true
TXCC,Corpus Christi, TX,gpsmet,27.739999771118164,-97.44000244140625,15.920000076293945,-9999.0,null,null,null,true
RMAM6,MARION,RAWS,31.211389541625977,-89.92223358154297,115.80000305175781,-9999.0,null,null,null,true
VWGI1,VAN WYCK                         ID US SNOTEL,utmesnet,44.369998931884766,-116.33000183105469,1499.9000244140625,-9999.0,null,null,null,true
C1758,CW1758 Lake City                  FL US,APRSWXNET,30.183330535888672,-82.63433074951172,57.29999923706055,-9999.0,null,null,null,true
C0425,CW0425 Saratoga                   CA US,APRSWXNET,37.25416946411133,-121.99949645996094,125.0,-9999.0,null,null,null,true
C1756,CW1756 Maysville                  WV US,APRSWXNET,39.132999420166016,-79.14910125732422,440.3999938964844,-9999.0,null,null,null,true
POTC1,POTRERO,RAWS,32.605831146240234,-116.60806274414062,716.2999877929688,-9999.0,null,null,null,true
NP160,Badger Ave. Br.,nosports,33.76599884033203,-118.23999786376953,0.0,-9999.0,null,null,null,true
BTTC1,BUTTERCUP,RAWS,32.73944091796875,-114.8838882446289,66.0999984741211,-9999.0,null,null,null,true
NP161,Berth 161,nosports,33.763999938964844,-118.26499938964844,0.0,-9999.0,null,null,null,true
NP162,Angels Gate,nosports,33.715999603271484,-118.24600219726562,0.0,-9999.0,null,null,null,true
NP163,Pier S,nosports,33.768001556396484,-118.22599792480469,0.0,-9999.0,null,null,null,true
NP164,Port of Tampa,nosports,27.915000915527344,-82.4229965209961,0.0,-9999.0,null,null,null,true
NP165,Ccut, FL,nosports,27.663000106811523,-82.61799621582031,0.0,-9999.0,null,null,null,true
NP166,Burlington, Delaware Rv NJ,nosports,40.08000183105469,-74.87300109863281,0.0,-9999.0,null,null,null,true
NP157,Pier F,nosports,33.74599838256836,-118.21499633789062,0.0,-9999.0,null,null,null,true
C0433,CW0433 Montgomery Village         MD US,APRSWXNET,39.1628303527832,-77.20033264160156,106.0,-9999.0,null,null,null,true
C1763,CW1763 Elbert                     CO US,APRSWXNET,39.116329193115234,-104.54850006103516,2189.0,-9999.0,null,null,null,true
NP158,Pier J,nosports,33.733001708984375,-118.18599700927734,0.0,-9999.0,null,null,null,true
C1762,CW1762 Scotia                     NY US,APRSWXNET,42.847999572753906,-73.96717071533203,84.69999694824219,-9999.0,null,null,null,true
NP159,Pier 400,nosports,33.73500061035156,-118.24099731445312,0.0,-9999.0,null,null,null,true
WRSS2,WHITE RIVER,RAWS,43.511390686035156,-102.49667358398438,795.5,-9999.0,null,null,null,true
TXBM,Beaumont, TX,gpsmet,30.15999984741211,-94.18000030517578,15.579999923706055,-9999.0,null,null,null,true
C1768,CW1768 Acton                      ME US,APRSWXNET,43.564170837402344,-70.94082641601562,177.0,-9999.0,null,null,null,true
C1767,CW1767 Salisbury                  MD US,APRSWXNET,38.37220001220703,-75.66329956054688,11.0,-9999.0,null,null,null,true
C1766,CW1766 Santa Rosa                 CA US,APRSWXNET,38.5341682434082,-122.68283081054688,231.60000610351562,-9999.0,null,null,null,true
C1765,CW1765 Ottawa                     ON CA,APRSWXNET,45.29999923706055,-75.8499984741211,114.0,-9999.0,null,null,null,true
KKEA2,KAKE,RAWS,56.9738883972168,-133.65972900390625,121.9000015258789,-9999.0,null,null,null,true
MFKC2,MIDDLE FORK CAMP                 CO US SNOTEL,utmesnet,39.779998779296875,-106.0199966430664,2742.89990234375,-9999.0,null,null,null,true
C1731,CW1731 Lenexa                     KS US,APRSWXNET,38.966670989990234,-94.75,299.0,-9999.0,null,null,null,true
C1730,CW1730 Chandler                   AZ US,APRSWXNET,33.239498138427734,-111.87349700927734,400.0,-9999.0,null,null,null,true
MDEC1,MIDDLE PEAK,RAWS,37.93056106567383,-122.5905532836914,759.0,-9999.0,null,null,null,true
PPFO3,POINT PROM II,RAWS,45.35443878173828,-117.70417022705078,2013.800048828125,-9999.0,null,null,null,true
C1738,CW1738 Munich                        DE,APRSWXNET,48.10633087158203,11.708330154418945,543.0,-9999.0,null,null,null,true
C0405,CW0405 Salisbury                  MA US,APRSWXNET,42.863670349121094,-70.9001693725586,5.0,-9999.0,null,null,null,true
C1735,CW1735 Succasunna                 NJ US,APRSWXNET,40.86750030517578,-74.62999725341797,219.0,-9999.0,null,null,null,true
TXEL,El Paso, TX,gpsmet,31.690000534057617,-106.2699966430664,1146.2900390625,-9999.0,null,null,null,true
C1734,CW1734 Newport                       UK,APRSWXNET,50.72032928466797,-1.2703299522399902,15.0,-9999.0,null,null,null,true
STM,Storm Peak                             CAIC,internet,40.45000076293945,-106.7300033569336,3200.0,-9999.0,null,null,null,true
C1733,CW1733 S. Miami                   FL US,APRSWXNET,25.70417022705078,-80.32866668701172,4.900000095367432,-9999.0,null,null,null,true
C1732,CW1732 Woonsocket Oak Grove       RI US,APRSWXNET,41.98332977294922,-71.47966766357422,78.5999984741211,-9999.0,null,null,null,true
BSB,BIG SOUTHERN BUTTE               ID US ARL FRD,utmesnet,43.290000915527344,-113.18000030517578,1565.199951171875,-9999.0,null,null,null,true
TR476,ATTWATER NWR,RAWS,29.661670684814453,-96.25945281982422,12.5,-9999.0,null,null,null,true
TR471,SCOTTS BLUFF,RAWS,41.82917022705078,-103.70805358886719,1287.5,-9999.0,null,null,null,true
TR474,ANAHUAC PORTABLE,RAWS,29.669170379638672,-94.43805694580078,1.5,-9999.0,null,null,null,true
MBOW,BOWMANS CORNER MT-200            MT US MT DOT,utmesnet,47.29999923706055,-112.12999725341797,1310.9000244140625,-9999.0,null,null,null,true
MBOU,BOULDER HILL I-15                MT US MT DOT,utmesnet,46.31999969482422,-112.12000274658203,1905.0,-9999.0,null,null,null,true
SLIM2,Solomons Island, MD,nosports,38.31700134277344,-76.4520034790039,0.0,-9999.0,null,null,null,true
MSOO,SIOUX PASS MT-16                 MT US MT DOT,utmesnet,47.93000030517578,-104.3499984741211,755.9000244140625,-9999.0,null,null,null,true
SUG,SUGAR CITY                       ID US ARL FRD,utmesnet,43.900001525878906,-111.73999786376953,1469.0999755859375,-9999.0,null,null,null,true
MSOL,Missoula, MT,gpsmet,46.93000030517578,-114.11000061035156,974.9400024414062,-9999.0,null,null,null,true
TFAUN,Fauntleroy                       WA US WA DOT,utmesnet,47.529998779296875,-122.38999938964844,0.0,-9999.0,null,null,null,true
BUFC1,BULL FLAT,RAWS,40.480560302734375,-120.1138916015625,1339.5999755859375,-9999.0,null,null,null,true
C1749,CW1749 Stamford                   TX US,APRSWXNET,33.015830993652344,-99.8791732788086,468.0,-9999.0,null,null,null,true
SUM,SUM                              ID US ARL FRD,utmesnet,43.39630126953125,-113.02179718017578,2309.199951171875,-9999.0,null,null,null,true
BUFC2,BUFFALO PARK                     CO US SNOTEL,utmesnet,40.220001220703125,-106.58000183105469,2816.10009765625,-9999.0,null,null,null,true
C0415,CW0415 Savage                     MD US,APRSWXNET,39.154170989990234,-76.8280029296875,96.0,-9999.0,null,null,null,true
C1745,CW1745 Burkburnett                TX US,APRSWXNET,34.09783172607422,-98.57333374023438,301.3999938964844,-9999.0,null,null,null,true
KPTV2,Kiptopeke, VA,nosports,37.16699981689453,-75.98799896240234,0.0,-9999.0,null,null,null,true
C1744,CW1744 Simpsonville               SC US,APRSWXNET,34.70016860961914,-82.3001708984375,195.10000610351562,-9999.0,null,null,null,true
TR486,RO PORTABLE #3,RAWS,33.560829162597656,-108.63054656982422,1135.4000244140625,-9999.0,null,null,null,true
TR489,COCONINO MICRO #4,RAWS,35.15277862548828,-111.6580581665039,2115.300048828125,-9999.0,null,null,null,true
SVFI1,POWELL,RAWS,46.511940002441406,-114.68805694580078,1039.0999755859375,-9999.0,null,null,null,true
MC01,Grand Junction, CO,ddmet,39.09000015258789,-108.52999877929688,1454.1400146484375,-9999.0,null,null,null,true
BTF,POWER BURST FACILITY             ID US ARL FRD,utmesnet,43.560001373291016,-112.91000366210938,1476.0999755859375,-9999.0,null,null,null,true
TXDR,Del Rio, TX,gpsmet,29.360000610351562,-100.9000015258789,302.8399963378906,-9999.0,null,null,null,true
QBHA3,BLACK HILLS,RAWS,33.086669921875,-109.95054626464844,1005.7999877929688,-9999.0,null,null,null,true
SVB,SUN VALLEY-BALD MTN              ID US SNOWNET,utmesnet,43.654998779296875,-114.40859985351562,2790.10009765625,-9999.0,null,null,null,true
POCN7,POCOSIN LAKES,RAWS,35.74666976928711,-76.51055908203125,1.7999999523162842,-9999.0,null,null,null,true
DELD1,Delaware City, DE,NOS-NWLON,39.58169937133789,-75.58830261230469,0.0,-9999.0,null,null,null,true
C1717,CW1717 Heber City                 UT US,APRSWXNET,40.492828369140625,-111.37632751464844,1767.0,-9999.0,null,null,null,true
C1716,CW1716 Aurora                     CO US,APRSWXNET,39.74300003051758,-104.7491683959961,1676.0,-9999.0,null,null,null,true
C1713,CW1713 Church Gresley                UK,APRSWXNET,52.75632858276367,-1.5548299551010132,50.0,-9999.0,null,null,null,true
UCCC1,YUCCA VALLEY,RAWS,34.123050689697266,-116.40778350830078,993.7000122070312,-9999.0,null,null,null,true
C1710,CW1710 Nelson                        NZ,APRSWXNET,-41.2599983215332,173.3000030517578,120.0,-9999.0,null,null,null,true
SVT,TITUS PEAK                       ID US SNOWNET,utmesnet,43.83660125732422,-114.71040344238281,3072.10009765625,-9999.0,null,null,null,true
C1719,CW1719 Key Largo                  FL US,APRSWXNET,25.119169235229492,-80.41883087158203,3.0,-9999.0,null,null,null,true
C1718,CW1718 Nye                        MT US,APRSWXNET,45.411170959472656,-109.86699676513672,1600.199951171875,-9999.0,null,null,null,true
TOLN5,TOLBY                            NM US SNOTEL,utmesnet,36.470001220703125,-105.18000030517578,3102.89990234375,-9999.0,null,null,null,true
TFRU1,TELEGRAPH FLAT,RAWS,37.19139099121094,-112.02665710449219,1664.199951171875,-9999.0,null,null,null,true
C1720,CW1720 Mead                       CO US,APRSWXNET,40.26449966430664,-104.99783325195312,1556.0,-9999.0,null,null,null,true
SJCI4,WDM: Jordan Creek Elem                 KCCI-TV,snet,41.55950164794922,-93.75830078125,283.5,-9999.0,null,null,null,true
SWH,SHERWOOD HILLS                   UT US UTAH DOT,utmesnet,41.584999084472656,-111.9749984741211,1535.9000244140625,-9999.0,null,null,null,true
C1727,CW1727 Marlborough                CT US,APRSWXNET,41.62099838256836,-72.44667053222656,114.30000305175781,-9999.0,null,null,null,true
C1725,CW1725 Dripping Springs           TX US,APRSWXNET,30.211999893188477,-98.04032897949219,360.0,-9999.0,null,null,null,true
C1723,CW1723 Woodstock                  IL US,APRSWXNET,42.31216812133789,-88.44866943359375,287.0,-9999.0,null,null,null,true
C1721,CW1721 St. Petersburg             FL US,APRSWXNET,27.833330154418945,-82.6500015258789,1.0,-9999.0,null,null,null,true
C1729,CW1729 Cambridge                  MD US,APRSWXNET,38.58032989501953,-76.09382629394531,6.699999809265137,-9999.0,null,null,null,true
GRAS,GRASSY FLATS                     UT US REC,utmesnet,39.3144416809082,-111.32917022705078,2699.89990234375,-9999.0,null,null,null,true
GRAR,Grand Rapids, MI,gpsmet,42.9900016784668,-85.66999816894531,189.49000549316406,-9999.0,null,null,null,true
TR468,CROSBY,RAWS,48.96805953979492,-104.001953125,650.4000244140625,-9999.0,null,null,null,true
CCLCA,CHOWCHILLA CA                          ETL,MAP,37.11000061035156,-120.23999786376953,76.0,-9999.0,null,null,null,true
HDF1,Hudson Falls, NY,ddmet,43.27000045776367,-73.54000091552734,71.80999755859375,-9999.0,null,null,null,true
SWII4,Winterset Commun                       KCCI-TV,snet,41.33341979980469,-94.01480102539062,356.6000061035156,-9999.0,null,null,null,true
BGMW1,BUNCHGRASS MDW                   WA US SNOTEL,utmesnet,48.68000030517578,-117.16999816894531,1524.0,-9999.0,null,null,null,true
SDCU,Custer, SD,gpsmet,43.77000045776367,-103.61000061035156,1700.5999755859375,-9999.0,null,null,null,true
C1704,CW1704 Pearce                     AZ US,APRSWXNET,31.9183292388916,-109.90750122070312,1463.0,-9999.0,null,null,null,true
C1701,CW1701 Solomons                   MD US,APRSWXNET,38.31700134277344,-76.45133209228516,2.0,-9999.0,null,null,null,true
C1709,CW1709 Kewanee                    IL US,APRSWXNET,41.240501403808594,-89.92967224121094,254.39999389648438,-9999.0,null,null,null,true
C1708,CW1708 Warrington                 PA US,APRSWXNET,40.25199890136719,-75.125,125.0,-9999.0,null,null,null,true
TXHU,Houston, TX,gpsmet,29.780000686645508,-95.43000030517578,39.31999969482422,-9999.0,null,null,null,true
C1707,CW1707 Gladstone                  MO US,APRSWXNET,39.21049880981445,-94.611328125,253.0,-9999.0,null,null,null,true
MSTA,US2 AT STATELINE                 MT US MT DOT,utmesnet,48.150001525878906,-104.06999969482422,640.0999755859375,-9999.0,null,null,null,true
LWSD1,Lewes, DE,nosports,38.78200149536133,-75.12000274658203,0.0,-9999.0,null,null,null,true
SKFI1,SKULL GULCH,RAWS,45.336669921875,-114.46806335449219,1554.5,-9999.0,null,null,null,true
SMLO3,SUMMIT LAKE                      OR US SNOTEL,utmesnet,43.45000076293945,-122.12999725341797,1706.9000244140625,-9999.0,null,null,null,true
BNRI2,BEAN RIDGE,RAWS,37.248329162597656,-89.37832641601562,213.39999389648438,-9999.0,null,null,null,true
LSFW1,LESTER,RAWS,47.20806121826172,-121.5250015258789,492.29998779296875,-9999.0,null,null,null,true
NINM8,NINE MILE,RAWS,47.070560455322266,-114.40194702148438,1005.7999877929688,-9999.0,null,null,null,true
MSWC,SWEENEY CREEK I-94               MT US MT DOT,utmesnet,46.27000045776367,-106.33000183105469,791.9000244140625,-9999.0,null,null,null,true
NINM1,ST JOHNS RVR AT NINE MILE BRDG NR CLAY,HADS,46.70000076293945,-69.7166976928711,316.1929931640625,-9999.0,null,null,null,true
ALRN2,ANTELOPE LAKE,RAWS,41.68444061279297,-116.76416778564453,1664.199951171875,-9999.0,null,null,null,true
QCKA3,CROWN KING,RAWS,34.20806121826172,-112.33305358886719,1798.300048828125,-9999.0,null,null,null,true
T144T,SB I-5 144th                     WA US WA DOT,utmesnet,47.470001220703125,-122.2699966430664,78.0,-9999.0,null,null,null,true
OYFO3,HOYT CREEK,RAWS,42.97639083862305,-121.42166900634766,1659.5999755859375,-9999.0,null,null,null,true
DRAC2,DRAGON ROAD,RAWS,39.91471862792969,-108.88777923583984,1920.199951171875,-9999.0,null,null,null,true
KAHN2,KAHLE DRIVE                      NV US NV DOT,utmesnet,38.97018814086914,-119.93492126464844,1922.4000244140625,-9999.0,null,null,null,true
TR420,KNF97 PORTABLE,RAWS,41.78388977050781,-122.0352783203125,1524.0,-9999.0,null,null,null,true
PEFO3,PEBBLE,RAWS,44.236671447753906,-121.99500274658203,1051.5999755859375,-9999.0,null,null,null,true
LGCU1,LITTLE GRASSY                    UT US SNOTEL,utmesnet,37.47999954223633,-113.8499984741211,1859.0,-9999.0,null,null,null,true
TR428,MOAB PORTABLE,RAWS,39.660831451416016,-110.71083068847656,1981.199951171875,-9999.0,null,null,null,true
AR270,KF4UXI Southern Shores            NC US,APRSWXNET,36.09550094604492,-75.73282623291016,9.0,-9999.0,null,null,null,true
PTBC1,PETALUMA - LYNCH CK              CA US CNRFC,utmesnet,38.23833084106445,-122.63667297363281,3.0,-9999.0,null,null,null,true
AR274,W4RP Palm Bay                     FL US,APRSWXNET,28.027999877929688,-80.66699981689453,7.0,-9999.0,null,null,null,true
WSFM8,WEST FORK,RAWS,45.818050384521484,-114.26304626464844,1585.0,-9999.0,null,null,null,true
AR273,N1JJX Southington                 CT US,APRSWXNET,41.61616897583008,-72.92217254638672,71.0,-9999.0,null,null,null,true
FTMM8,FLATTOP MTN.                     MT US SNOTEL,utmesnet,48.79999923706055,-113.8499984741211,1919.9000244140625,-9999.0,null,null,null,true
BLLA2,FWSRX1,RAWS,62.63999938964844,-141.61416625976562,607.7999877929688,-9999.0,null,null,null,true
AR267,N3WNZ-1 Warrensburg               MO US,APRSWXNET,38.74032974243164,-93.66217041015625,231.60000610351562,-9999.0,null,null,null,true
AR269,KC7PHC Orofino                    ID US,APRSWXNET,46.47267150878906,-116.24732971191406,408.0,-9999.0,null,null,null,true
AR260,KD5FDE Runaway Bay                TX US,APRSWXNET,33.16532897949219,-97.89450073242188,277.0,-9999.0,null,null,null,true
RCEC1,ROCK CREEK,RAWS,37.5513916015625,-118.66694641113281,2145.800048828125,-9999.0,null,null,null,true
FVST2,Fluvanna 3W,WT-Meso,32.89902877807617,-101.20189666748047,825.0999755859375,-9999.0,null,null,null,true
QUPA3,UNION PASS,RAWS,35.224449157714844,-114.37444305419922,1072.9000244140625,-9999.0,null,null,null,true
AR263,WB8YUE Beaver                     WV US,APRSWXNET,37.776668548583984,-81.1729965209961,738.0,-9999.0,null,null,null,true
TACN2,TAYLOR CANYON                    NV US SNOTEL,utmesnet,41.22999954223633,-115.9800033569336,1890.0999755859375,-9999.0,null,null,null,true
BBY4,Bodega Bay, CA,ddmet,38.31999969482422,-123.06999969482422,15.119999885559082,-9999.0,null,null,null,true
MSWT,SWEETGRASS I-15                  MT US MT DOT,utmesnet,48.97999954223633,-111.94999694824219,1058.0,-9999.0,null,null,null,true
DMST2,Dimmitt 2NE,WT-Meso,34.567508697509766,-102.29319763183594,1181.4000244140625,-9999.0,null,null,null,true
TXLU,Lubbock, TX,gpsmet,33.540000915527344,-101.83999633789062,980.8099975585938,-9999.0,null,null,null,true
TXLR,Laredo, TX,gpsmet,27.510000228881836,-99.44999694824219,137.5800018310547,-9999.0,null,null,null,true
BYRG1,BYROMVILLE,RAWS,32.168060302734375,-83.97444152832031,152.39999389648438,-9999.0,null,null,null,true
VLYC1,VALYERMO,RAWS,34.445560455322266,-117.850830078125,1152.0999755859375,-9999.0,null,null,null,true
QJPA3,JUNIPER RIDGE,RAWS,34.23278045654297,-110.20084381103516,2109.199951171875,-9999.0,null,null,null,true
MBVR,BEAVER HILL I-94                 MT US MT DOT,utmesnet,47.02000045776367,-104.3499984741211,853.0999755859375,-9999.0,null,null,null,true
AR256,W5HKR Schertz                     TX US,APRSWXNET,29.59160041809082,-98.26632690429688,250.0,-9999.0,null,null,null,true
AR255,KC4YLE Efland                     NC US,APRSWXNET,36.08100128173828,-79.16899871826172,201.0,-9999.0,null,null,null,true
MNSI1,MOONSHINE                        ID US SNOTEL,utmesnet,44.41999816894531,-113.41999816894531,2268.0,-9999.0,null,null,null,true
NINR1,NINIGRET,RAWS,41.38277816772461,-71.58139038085938,12.199999809265137,-9999.0,null,null,null,true
AR292,DC1JU Guntersblum                    DE,APRSWXNET,49.792999267578125,8.349329948425293,100.0,-9999.0,null,null,null,true
SUM1,Summerfield, TX,gpsmet,34.83000183105469,-102.51000213623047,1188.510009765625,-9999.0,null,null,null,true
TLTN3,WINNIPESAUKEE RIVER AT TILTON,HADS,43.441898345947266,-71.58889770507812,168.97300720214844,-9999.0,null,null,null,true
BRMO3,BIG RED MOUNTAIN                 OR US SNOTEL,utmesnet,42.04999923706055,-122.8499984741211,1905.0,-9999.0,null,null,null,true
GRAA2,GRANITE,RAWS,60.72721862792969,-149.2866668701172,156.10000610351562,-9999.0,null,null,null,true
OCFW1,ORR CREEK,RAWS,46.35805892944336,-121.5966567993164,777.2000122070312,-9999.0,null,null,null,true
AR287,BENRDG BensonRidge                NM US,APRSWXNET,32.8745002746582,-105.77433013916016,2995.0,-9999.0,null,null,null,true
CKST2,CLARKSVILLE,RAWS,33.61888885498047,-95.16665649414062,146.3000030517578,-9999.0,null,null,null,true
CIMN5,CIMARRON,RAWS,36.605831146240234,-105.12027740478516,2665.199951171875,-9999.0,null,null,null,true
AR282,VE7IMD-2 Delta                    BC CA,APRSWXNET,49.019168853759766,-123.086669921875,73.69999694824219,-9999.0,null,null,null,true
AR280,VE3JON Kincardine                ONT CA,APRSWXNET,44.079498291015625,-81.70417022705078,203.89999389648438,-9999.0,null,null,null,true
AR284,VE7MMG-1 Crystal Mt.              BC CA,APRSWXNET,49.882171630859375,-119.71016693115234,1111.0,-9999.0,null,null,null,true
TAB,TABER                            ID US ARL FRD,utmesnet,43.31999969482422,-112.69000244140625,1414.9000244140625,-9999.0,null,null,null,true
BMOC2,BLACK MOUNTAIN,RAWS,37.861671447753906,-105.2841567993164,2737.699951171875,-9999.0,null,null,null,true
AR278,VE3CJB Orangeville               ONT CA,APRSWXNET,44.07500076293945,-80.00050354003906,313.0,-9999.0,null,null,null,true
AR279,VE3COE Kincardine                ONT CA,APRSWXNET,44.1888313293457,-81.63667297363281,198.0,-9999.0,null,null,null,true
AR276,W2RZS Hawthorn                    NY US,APRSWXNET,41.09416961669922,-73.8153305053711,67.0,-9999.0,null,null,null,true
AR277,VE2GAT-2 St.Hyacinthe             QB CA,APRSWXNET,45.616329193115234,-72.95417022705078,26.200000762939453,-9999.0,null,null,null,true
ANGM8,Angel Point                      MT US MSOWFO,utmesnet,47.97999954223633,-114.16999816894531,898.9000244140625,-9999.0,null,null,null,true
TXOD,Odessa, TX,gpsmet,31.8700008392334,-102.31999969482422,883.9000244140625,-9999.0,null,null,null,true
AR230,K4DIG-7 Sardis Springs            AL US,APRSWXNET,34.852169036865234,-86.90374755859375,230.0,-9999.0,null,null,null,true
HTRC1,HUNTER MOUNTAIN,RAWS,36.5625,-117.47334289550781,2097.0,-9999.0,null,null,null,true
MFKU1,MINING FORK                      UT US SNOTEL,utmesnet,40.47999954223633,-112.62000274658203,2438.10009765625,-9999.0,null,null,null,true
AR229,N9RLR Tampa                       FL US,APRSWXNET,27.98716926574707,-82.57949829101562,1.0,-9999.0,null,null,null,true
AR223,WT4X-5 Grassy Key                 FL US,APRSWXNET,24.759170532226562,-80.95700073242188,1.0,-9999.0,null,null,null,true
AR224,WT4X-6 Plantation Key             FL US,APRSWXNET,24.979169845581055,-80.55033111572266,2.0,-9999.0,null,null,null,true
ARST2,Abernathy 5NE,WT-Meso,33.87538146972656,-101.7572021484375,1015.9000244140625,-9999.0,null,null,null,true
AR222,WT4X-2 Big Coppitt Key            FL US,APRSWXNET,24.5958309173584,-81.66117095947266,2.0,-9999.0,null,null,null,true
AR227,WA5SJW-10 E.Albuquerque           NM US,APRSWXNET,35.175331115722656,-106.48082733154297,1936.0,-9999.0,null,null,null,true
PLKI1,PRIEST LAKE,RAWS,48.57500076293945,-116.96333312988281,792.5,-9999.0,null,null,null,true
AR228,N0ERG Littleton                   CO US,APRSWXNET,39.625,-104.97949981689453,1609.0,-9999.0,null,null,null,true
AR225,KG6QHS Shingletown                CA US,APRSWXNET,40.524169921875,-121.80166625976562,1220.0,-9999.0,null,null,null,true
AR226,W4RL-1 Pensacola                  FL US,APRSWXNET,30.513500213623047,-87.1760025024414,23.0,-9999.0,null,null,null,true
TXPR,Pharr, TX,gpsmet,26.209999084472656,-98.19000244140625,38.91999816894531,-9999.0,null,null,null,true
STQI4,Tama                                   KCCI-TV,snet,41.992618560791016,-92.64649963378906,256.0,-9999.0,null,null,null,true
RTFO3,RED BUTTE,RAWS,43.535831451416016,-117.83444213867188,1359.4000244140625,-9999.0,null,null,null,true
AR220,KB6KJX Ellensburg                 WA US,APRSWXNET,46.99232864379883,-120.51399993896484,473.0,-9999.0,null,null,null,true
MBZH,BOZEMAN HILL I-90                MT US MT DOT,utmesnet,45.66999816894531,-110.77999877929688,1752.0,-9999.0,null,null,null,true
ORSI1,Orofino School                   ID US MSOWFO,utmesnet,46.47999954223633,-116.23999786376953,324.6000061035156,-9999.0,null,null,null,true
SNOW4,SNOW SPRINGS CREEK,RAWS,41.41722106933594,-109.03584289550781,2301.199951171875,-9999.0,null,null,null,true
HUNT,HUNTINGTON NORTH                 UT US REC,utmesnet,39.339599609375,-110.96160125732422,1761.699951171875,-9999.0,null,null,null,true
TMFO3,TIMOTHY,RAWS,43.24306106567383,-121.35806274414062,1834.9000244140625,-9999.0,null,null,null,true
RHCM6,COVINGTON,RAWS,31.749439239501953,-89.51638793945312,88.4000015258789,-9999.0,null,null,null,true
AR213,W4HSV Huntsville                  AL US,APRSWXNET,34.756168365478516,-86.6780014038086,229.0,-9999.0,null,null,null,true
AR210,N4IDX-7 Youngtown                 AL US,APRSWXNET,34.40782928466797,-87.39366912841797,295.0,-9999.0,null,null,null,true
LSGC1,LOS GATOS,RAWS,37.202781677246094,-121.94277954101562,609.5999755859375,-9999.0,null,null,null,true
AR216,W7PG-12 Home Creek                MT US,APRSWXNET,45.60200119018555,-105.93699645996094,1342.0,-9999.0,null,null,null,true
AR214,KB0RPX Wood River                 NE US,APRSWXNET,40.56666946411133,-98.5666732788086,614.0,-9999.0,null,null,null,true
AR250,KA8SCP Westford                   MA US,APRSWXNET,42.60969924926758,-71.46640014648438,70.0999984741211,-9999.0,null,null,null,true
LTJC1,LITTLE TUJUNGA,RAWS,34.293331146240234,-118.36055755615234,423.70001220703125,-9999.0,null,null,null,true
AR251,KB5MDH Kiowa                      KS US,APRSWXNET,37.01250076293945,-98.4854965209961,404.0,-9999.0,null,null,null,true
TR490,KAIBAB-NK MICRO #1,RAWS,36.41416931152344,-112.30695343017578,2411.300048828125,-9999.0,null,null,null,true
TR492,KAIBAB-SK MICRO #3,RAWS,35.20138931274414,-112.16665649414062,2057.10009765625,-9999.0,null,null,null,true
TR491,KAIBAB-TUS MICRO #2,RAWS,37.91416931152344,-111.90666961669922,2159.5,-9999.0,null,null,null,true
CRGC1,CORNING,RAWS,39.93888854980469,-122.16944122314453,89.5999984741211,-9999.0,null,null,null,true
RALR,Raleigh, NC,gpsmet,35.790000915527344,-78.63999938964844,174.57000732421875,-9999.0,null,null,null,true
AR245,K7HRT Greenacres                  WA US,APRSWXNET,47.61466979980469,-117.18350219726562,707.0,-9999.0,null,null,null,true
AR246,K7JVJ Sisters                     OR US,APRSWXNET,44.268829345703125,-121.59049987792969,1050.0,-9999.0,null,null,null,true
AR243,K4TPD-5 Donalsonville             GA US,APRSWXNET,30.784500122070312,-84.86966705322266,35.0,-9999.0,null,null,null,true
AR244,K5ZXZ Texas City                  TX US,APRSWXNET,29.388669967651367,-94.93550109863281,3.0,-9999.0,null,null,null,true
AR249,KA5WRG Oklahoma City              OK US,APRSWXNET,35.38417053222656,-97.42949676513672,388.0,-9999.0,null,null,null,true
LABL1,E Bank, Bayou LaBranche, LA,NOS-NWLON,30.049999237060547,-90.36830139160156,0.0,-9999.0,null,null,null,true
DPKW4,DEER PARK                        WY US SNOTEL,utmesnet,42.58000183105469,-108.9000015258789,2956.89990234375,-9999.0,null,null,null,true
SUP3,Newberry, MI,gpsmet,46.29999923706055,-85.51000213623047,256.94000244140625,-9999.0,null,null,null,true
SUP2,Escabana, MI,gpsmet,45.75,-87.06999969482422,189.6300048828125,-9999.0,null,null,null,true
SUP1,L Anse, MI,gpsmet,46.75,-88.44000244140625,237.08999633789062,-9999.0,null,null,null,true
AR242,K2LGJ Buffalo                     NY US,APRSWXNET,42.97882843017578,-78.87300109863281,189.0,-9999.0,null,null,null,true
PEFW1,PEOH POINT,RAWS,47.151939392089844,-120.94666290283203,1225.300048828125,-9999.0,null,null,null,true
RSCN2,ROCK SPRING CREEK,RAWS,41.64305114746094,-114.4375,1645.9000244140625,-9999.0,null,null,null,true
LASN2,LITTLE ANTELOPE SUMMIT           NV US NV DOT,utmesnet,39.397499084472656,-115.46772003173828,2283.0,-9999.0,null,null,null,true
CCS,Clear Creek Summit I70           UT US UTAH DOT,utmesnet,38.590999603271484,-112.49440002441406,2165.0,-9999.0,null,null,null,true
TXSA,San Angelo, TX,gpsmet,31.40999984741211,-100.47000122070312,590.1900024414062,-9999.0,null,null,null,true
AR232,KC7RJK Eugene                     OR US,APRSWXNET,44.10049819946289,-123.13249969482422,109.30000305175781,-9999.0,null,null,null,true
FTMU1,FLATTOP MOUNTAIN,RAWS,39.33721923828125,-110.59971618652344,1865.4000244140625,-9999.0,null,null,null,true
AR239,OZ9WC-5 Lejre                        DK,APRSWXNET,55.577999114990234,11.988499641418457,10.0,-9999.0,null,null,null,true
AR236,WA5FSR St. Hedwig                 TX US,APRSWXNET,29.391830444335938,-98.2093276977539,176.0,-9999.0,null,null,null,true
PIBC1,BLACK DIAMOND,RAWS,37.95000076293945,-121.88416290283203,487.70001220703125,-9999.0,null,null,null,true
SVFO3,SILVER BUTTE,RAWS,42.858890533447266,-123.3780517578125,1211.0,-9999.0,null,null,null,true
AR237,KC5PWQ Keene                      TX US,APRSWXNET,32.37617111206055,-97.3011703491211,239.55999755859375,-9999.0,null,null,null,true
DOHS2,BAKER PARK,RAWS,43.97917175292969,-103.42472076416016,1424.5999755859375,-9999.0,null,null,null,true
TER,TERRETON                         ID US ARL FRD,utmesnet,43.810001373291016,-112.41000366210938,1439.0,-9999.0,null,null,null,true
TES,TEAD SOUTH                       UT US TOOELE,utmesnet,40.3299446105957,-112.40802764892578,1567.0,-9999.0,null,null,null,true
DARN7,DAVIDSON RIVER,RAWS,35.35055923461914,-82.7783432006836,975.4000244140625,-9999.0,null,null,null,true
TSWI3,TIPSAW LAKE,RAWS,38.125,-86.625,218.8000030517578,-9999.0,null,null,null,true
HLYM6,DELTA RD,RAWS,32.810279846191406,-90.7841567993164,28.299999237060547,-9999.0,null,null,null,true
SQFI1,SQUAW FLAT                       ID US SNOTEL,utmesnet,44.77000045776367,-116.25,1902.0,-9999.0,null,null,null,true
A0114,Massachusetts Bay,GoMOOS,42.52000045776367,-70.56999969482422,0.0,-9999.0,null,null,null,true
AR429,KD5NFW Midlothian                 TX US,APRSWXNET,32.493831634521484,-96.96299743652344,230.10000610351562,-9999.0,null,null,null,true
BNTC1,BEAUMONT,RAWS,33.93056106567383,-116.939453125,816.9000244140625,-9999.0,null,null,null,true
FRVM3,Fall River, MA,nosports,41.70500183105469,-71.16300201416016,0.0,-9999.0,null,null,null,true
AR427,AH6GR Maui                        HI US,APRSWXNET,20.877830505371094,-156.5186767578125,264.6000061035156,-9999.0,null,null,null,true
AR428,KF4YYH Largo                      FL US,APRSWXNET,27.889829635620117,-82.73217010498047,5.5,-9999.0,null,null,null,true
AR422,DF0BLM Gosen                         DE,APRSWXNET,53.38766860961914,13.697999954223633,300.0,-9999.0,null,null,null,true
AR420,DB0GZX Alfeld                        DE,APRSWXNET,51.97549819946289,9.841670036315918,300.0,-9999.0,null,null,null,true
THFI1,LITTLE CREEK,RAWS,44.5,-114.9000015258789,1408.199951171875,-9999.0,null,null,null,true
AR425,K1CDA Newburgh                    ME US,APRSWXNET,44.69282913208008,-68.96566772460938,97.5,-9999.0,null,null,null,true
AR426,K4BS Dahlonega                    GA US,APRSWXNET,34.55699920654297,-84.29216766357422,554.5,-9999.0,null,null,null,true
AR423,DG2KB Wilhelmshaven                  DE,APRSWXNET,53.55883026123047,8.09867000579834,300.0,-9999.0,null,null,null,true
AGUU1,AGUA CANYON                      UT US SNOTEL,utmesnet,37.52000045776367,-112.2699966430664,2713.0,-9999.0,null,null,null,true
PKFO3,BUCKEYE,RAWS,43.035831451416016,-122.65528106689453,998.2000122070312,-9999.0,null,null,null,true
SFFI1,SKI HILL,RAWS,44.943328857421875,-116.1877670288086,1676.4000244140625,-9999.0,null,null,null,true
JNSC2,JONES HILL,RAWS,39.04138946533203,-106.0030517578125,2911.800048828125,-9999.0,null,null,null,true
AR418,NK7I Las Vegas                    NV US,APRSWXNET,36.14950180053711,-115.10883331298828,576.7000122070312,-9999.0,null,null,null,true
AR416,W3VC-1 Mars                       PA US,APRSWXNET,40.44232940673828,-79.94667053222656,285.0,-9999.0,null,null,null,true
AR417,K4EKG Hamilton                    AL US,APRSWXNET,34.14717102050781,-88.02632904052734,193.0,-9999.0,null,null,null,true
AR410,WB3W Schnecksville                PA US,APRSWXNET,40.679168701171875,-75.61216735839844,211.0,-9999.0,null,null,null,true
AR415,K1HU Wellesley                    MA US,APRSWXNET,42.31050109863281,-71.24749755859375,50.0,-9999.0,null,null,null,true
AR412,KL1SF-7 Healy                     AK US,APRSWXNET,63.8745002746582,-148.99583435058594,420.6000061035156,-9999.0,null,null,null,true
AR413,W5JWW Sumner                      MS US,APRSWXNET,33.971168518066406,-90.36699676513672,46.29999923706055,-9999.0,null,null,null,true
CFA,CENTRAL FACILITY                 ID US ARL FRD,utmesnet,43.529998779296875,-112.94999694824219,1492.9000244140625,-9999.0,null,null,null,true
FERI1,FENN,RAWS,46.099998474121094,-115.5344467163086,463.29998779296875,-9999.0,null,null,null,true
MRLV1,MARLBORO,RAWS,42.8377799987793,-72.73473358154297,513.9000244140625,-9999.0,null,null,null,true
SDSF,Sioux Falls, SD,ddmet,43.72999954223633,-96.62000274658203,485.8599853515625,-9999.0,null,null,null,true
AR450,WB0RXX Montevideo                 MN US,APRSWXNET,44.9398307800293,-95.71566772460938,312.20001220703125,-9999.0,null,null,null,true
AR451,WA4ROX Largo                      FL US,APRSWXNET,27.876630783081055,-82.7851333618164,14.600000381469727,-9999.0,null,null,null,true
RYCI1,REYNOLDS CREEK                   ID US SNOTEL,utmesnet,43.06999969482422,-116.75,1706.9000244140625,-9999.0,null,null,null,true
RDX03,University of Alabama, Huntsville, AL  UAH,RDMTR,34.723331451416016,-86.64193725585938,212.1407928466797,-9999.0,null,null,null,true
RDX02,Radiometrics Corporation, Boulder, CO  RDX,RDMTR,40.025821685791016,-105.24549865722656,1592.333984375,-9999.0,null,null,null,true
AR449,N4ZOI Cheraw                      SC US,APRSWXNET,34.70417022705078,-79.89949798583984,45.70000076293945,-9999.0,null,null,null,true
BHRO3,BOARD HOLLOW,RAWS,44.60388946533203,-120.6844482421875,1276.5,-9999.0,null,null,null,true
LMCN2,LAMANCE CREEK                    NV US SNOTEL,utmesnet,41.52000045776367,-117.62999725341797,1829.0999755859375,-9999.0,null,null,null,true
LTHC1,LOST HORSE,RAWS,34.01778030395508,-116.1877670288086,1280.199951171875,-9999.0,null,null,null,true
AR441,N1CNV Newington                   CT US,APRSWXNET,41.676170349121094,-72.74500274658203,45.70000076293945,-9999.0,null,null,null,true
AR448,KA4NES Littleton                  NC US,APRSWXNET,36.475830078125,-77.92633056640625,67.0,-9999.0,null,null,null,true
AR445,N4XI-9 Owensboro                  KY US,APRSWXNET,37.746829986572266,-87.11650085449219,122.0,-9999.0,null,null,null,true
AR446,N4XI-3 Evansville                 IN US,APRSWXNET,38.03200149536133,-87.5790023803711,118.0,-9999.0,null,null,null,true
QSHA3,STRAY HORSE,RAWS,33.540550231933594,-109.3166732788086,2139.699951171875,-9999.0,null,null,null,true
WGRM8,WEST GLACIER,RAWS,48.51055908203125,-113.9941635131836,975.4000244140625,-9999.0,null,null,null,true
JUFW1,JUNIPER DUNES,RAWS,46.3650016784668,-118.8791732788086,289.6000061035156,-9999.0,null,null,null,true
NCKC2,NEEDLE CREEK,RAWS,38.3891716003418,-106.53056335449219,2741.10009765625,-9999.0,null,null,null,true
STORM,Storm Peak Observatory           CO US DRI,utmesnet,40.45000076293945,-106.7300033569336,3209.89990234375,-9999.0,null,null,null,true
AR438,N0RGA-2 Tea                       SD US,APRSWXNET,43.44432830810547,-96.83733367919922,454.79998779296875,-9999.0,null,null,null,true
AR439,N0VHU Howells                     NE US,APRSWXNET,41.717498779296875,-97.00267028808594,464.79998779296875,-9999.0,null,null,null,true
TXWF,Wichita Falls, TX,gpsmet,33.849998474121094,-98.51000213623047,307.8599853515625,-9999.0,null,null,null,true
AR436,N0KTA-2 Mulvane                   KS US,APRSWXNET,37.47766876220703,-97.24017333984375,381.0,-9999.0,null,null,null,true
AR437,N0OHO-1 Sioux Center              IA US,APRSWXNET,43.08367156982422,-96.16699981689453,445.6000061035156,-9999.0,null,null,null,true
SCNC1,SAN CLEMENTE ISLAND,RAWS,32.84000015258789,-118.38749694824219,285.0,-9999.0,null,null,null,true
AR434,KD5RWX Glenwood                   NM US,APRSWXNET,33.3224983215332,-108.87799835205078,1371.0,-9999.0,null,null,null,true
AR435,KB8UBG Saint Bernard              OH US,APRSWXNET,39.16416931152344,-84.4958267211914,184.39999389648438,-9999.0,null,null,null,true
CRZC1,CRAZY PEAK,RAWS,41.97639083862305,-123.61195373535156,1210.0999755859375,-9999.0,null,null,null,true
BSAK2,BIG SANDY,RAWS,37.75,-82.633056640625,359.70001220703125,-9999.0,null,null,null,true
SETC1,SECRET TOWN,RAWS,39.18333053588867,-120.88445281982422,829.0999755859375,-9999.0,null,null,null,true
MCD1,McDill AFB, FL,ddmet,27.850000381469727,-82.52999877929688,8.829999923706055,-9999.0,null,null,null,true
ANIC1,ANACAPA ISLAND,RAWS,34.015560150146484,-119.35944366455078,84.4000015258789,-9999.0,null,null,null,true
MEFW1,SAWMILL FLATS,RAWS,46.96833038330078,-121.0683364868164,1066.800048828125,-9999.0,null,null,null,true
RROO3,RAILROAD OVERPASS                OR US SNOTEL,utmesnet,43.619998931884766,-122.12999725341797,837.9000244140625,-9999.0,null,null,null,true
RHRS2,MT. RUSHMORE,RAWS,43.87638854980469,-103.45722198486328,1645.9000244140625,-9999.0,null,null,null,true
MTHN,Marathon Key, FL,gpsmet,24.729999542236328,-81.05000305175781,1.8700000047683716,-9999.0,null,null,null,true
COPW1,CORRAL PASS                      WA US SNOTEL,utmesnet,47.02000045776367,-121.47000122070312,1829.0999755859375,-9999.0,null,null,null,true
RHAT2,ATHENS,RAWS,32.220829010009766,-95.76583099365234,143.3000030517578,-9999.0,null,null,null,true
AR409,KQ3F Harrisburg                   PA US,APRSWXNET,40.33150100708008,-76.7281723022461,152.0,-9999.0,null,null,null,true
AR400,KM5HG Claremore                   OK US,APRSWXNET,36.25933074951172,-95.70333099365234,198.0,-9999.0,null,null,null,true
AR404,KI4AOA Gladys                     VA US,APRSWXNET,37.171600341796875,-78.99530029296875,170.6999969482422,-9999.0,null,null,null,true
TWRN5,TOWER,RAWS,35.779170989990234,-106.62666320800781,1981.199951171875,-9999.0,null,null,null,true
AR402,KN4CI-1 Moulton                   AL US,APRSWXNET,34.50688934326172,-87.24147033691406,199.0,-9999.0,null,null,null,true
PLO3,Point Loma, CA,ddmet,32.66999816894531,-117.23999786376953,12.710000038146973,-9999.0,null,null,null,true
LCFW1,LANE CREEK,RAWS,48.616661071777344,-118.25554656982422,1158.199951171875,-9999.0,null,null,null,true
DVOC1,DEVORE,RAWS,34.220829010009766,-117.4030532836914,634.0,-9999.0,null,null,null,true
MLKI1,MILL CREEK SUMMIT                ID US SNOTEL,utmesnet,44.470001220703125,-114.47000122070312,2681.89990234375,-9999.0,null,null,null,true
NP025,Old Port Tampa, FL,nosports,27.85700035095215,-82.5530014038086,0.0,-9999.0,null,null,null,true
NP027,Sunshine Skyway, FL,nosports,27.64299964904785,-82.65699768066406,0.0,-9999.0,null,null,null,true
CLK,CANYONS - LOOKOUT                UT US SNOWNET,utmesnet,40.68299865722656,-111.5739974975586,2528.89990234375,-9999.0,null,null,null,true
NP028,Port Manatee, FL,nosports,27.66200065612793,-82.59500122070312,0.0,-9999.0,null,null,null,true
CLN,ALTA - COLLINS                   UT US AVALANCHE,utmesnet,40.57630157470703,-111.63829803466797,2945.0,-9999.0,null,null,null,true
BMPW1,BUMPING RIDGE                    WA US SNOTEL,utmesnet,46.81999969482422,-121.33000183105469,1402.0999755859375,-9999.0,null,null,null,true
WNFL1,Winnfield, LA,ddmet,31.899999618530273,-92.77999877929688,92.05000305175781,-9999.0,null,null,null,true
CTOC1,CORRALITOS,RAWS,36.99082946777344,-121.79778289794922,137.1999969482422,-9999.0,null,null,null,true
LTHM7,Lathrop, MO,ddmet,39.58000183105469,-94.16999816894531,293.1099853515625,-9999.0,null,null,null,true
ELSI,ELSINORE-RICHFIELD CANAL         UT US REC,utmesnet,38.65999984741211,-112.16999816894531,1627.9000244140625,-9999.0,null,null,null,true
NFLN,Fallon NAS, NV,gpsmet,39.41999816894531,-118.70999908447266,1218.5899658203125,-9999.0,null,null,null,true
ICYU1,INDIAN CANYON                    UT US SNOTEL,utmesnet,39.900001525878906,-110.75,2774.0,-9999.0,null,null,null,true
PLS1,Polson, MT,ddmet,47.65999984741211,-114.11000061035156,989.260009765625,-9999.0,null,null,null,true
NP016,Robins Reef, NJ,nosports,40.65700149536133,-74.06500244140625,0.0,-9999.0,null,null,null,true
DRSU1,DONKEY RESERVOIR                 UT US SNOTEL,utmesnet,38.220001220703125,-111.47000122070312,2987.0,-9999.0,null,null,null,true
GRPN2,GRANITE PEAK                     NV US SNOTEL,utmesnet,41.650001525878906,-117.56999969482422,2377.10009765625,-9999.0,null,null,null,true
SECN2,SECRET CREEK                     NV US NV DOT,utmesnet,39.14186096191406,-119.92491912841797,2091.199951171875,-9999.0,null,null,null,true
DGSW1,DUNGENESS                        WA US SNOTEL,utmesnet,47.880001068115234,-123.08000183105469,1250.0,-9999.0,null,null,null,true
SCNI4,Corning Community _ Corning            KCCI-TV,snet,40.99169921875,-94.73975372314453,390.1000061035156,-9999.0,null,null,null,true
HMKW4,HAMS FORK                        WY US SNOTEL,utmesnet,42.150001525878906,-110.68000030517578,2389.89990234375,-9999.0,null,null,null,true
MRMA3,MORMON MOUNTAIN                  AZ US SNOTEL,utmesnet,34.93000030517578,-111.5199966430664,2286.0,-9999.0,null,null,null,true
C0587,CW0587 Merritt Island             FL US,APRSWXNET,28.42633056640625,-80.71466827392578,2.0,-9999.0,null,null,null,true
C0584,CW0584 Northampton                   UK,APRSWXNET,52.29999923706055,-0.8999999761581421,115.0,-9999.0,null,null,null,true
PCPC2,PORCUPINE CR.,RAWS,40.098060607910156,-106.68055725097656,2725.199951171875,-9999.0,null,null,null,true
ESPO3,EMIGRANT SPRINGS                 OR US SNOTEL,utmesnet,45.54999923706055,-118.44999694824219,1196.0,-9999.0,null,null,null,true
MDCU1,MUDDY CK - EMERY                 UT US CRBFC,utmesnet,38.98194122314453,-111.2491683959961,1962.9000244140625,-9999.0,null,null,null,true
JCSN8,J. CLARK SALYER,RAWS,48.61528015136719,-100.72833251953125,438.8999938964844,-9999.0,null,null,null,true
SBKI4,Belmond Klemme                         KCCI-TV,snet,42.849769592285156,-93.60369873046875,372.20001220703125,-9999.0,null,null,null,true
TPR,TRAPPERS LOOP ROAD               UT US UTAH DOT,utmesnet,41.21699905395508,-111.79900360107422,1759.9000244140625,-9999.0,null,null,null,true
C0597,CW0597 Tehachapi                  CA US,APRSWXNET,35.14799880981445,-118.50700378417969,1202.0,-9999.0,null,null,null,true
WRRU1,WHITE REEF,RAWS,37.2158317565918,-113.37777709960938,1048.5,-9999.0,null,null,null,true
HVERN,Vernita Bridge (Hanford)         WA US HMMN,utmesnet,46.64099884033203,-119.72799682617188,131.10000610351562,-9999.0,null,null,null,true
C0599,CW0599 Corrales                   NM US,APRSWXNET,35.24617004394531,-106.6208267211914,1521.0,-9999.0,null,null,null,true
LUKO3,LUCKY STRIKE                     OR US SNOTEL,utmesnet,45.279998779296875,-118.8499984741211,1538.9000244140625,-9999.0,null,null,null,true
ESPN2,EAST SPARKS                      NV US NV DOT,utmesnet,39.528968811035156,-119.72026062011719,1336.9000244140625,-9999.0,null,null,null,true
TCHC2,TRINCHERA                        CO US SNOTEL,utmesnet,37.349998474121094,-105.2300033569336,3310.10009765625,-9999.0,null,null,null,true
MLKM8,MEDICINE LAKE,RAWS,48.4900016784668,-104.475830078125,602.0,-9999.0,null,null,null,true
QPPA3,PARIA POINT,RAWS,36.727779388427734,-111.82166290283203,2205.199951171875,-9999.0,null,null,null,true
GHST2,Graham 5SW,WT-Meso,33.0815315246582,-101.51609802246094,869.0,-9999.0,null,null,null,true
C0565,CW0565 Kristiansand                  NO,APRSWXNET,58.275169372558594,7.976669788360596,55.0,-9999.0,null,null,null,true
C0562,CW0562 Lancaster                  PA US,APRSWXNET,40.07366943359375,-76.38667297363281,183.0,-9999.0,null,null,null,true
C0563,CW0563 Hermosilo                 SON MX,APRSWXNET,29.02617073059082,-110.90167236328125,267.0,-9999.0,null,null,null,true
C1893,CW1893 Prineville Airpt.          OR US,APRSWXNET,44.280330657958984,-120.90132904052734,991.0,-9999.0,null,null,null,true
C1892,CW1892 Tracy                      CA US,APRSWXNET,37.73217010498047,-121.42967224121094,19.799999237060547,-9999.0,null,null,null,true
C0561,CW0561 Coon Rapids                MN US,APRSWXNET,45.158668518066406,-93.27149963378906,274.0,-9999.0,null,null,null,true
WRRT2,SOUTHERN ROUGH,RAWS,30.544450759887695,-94.34583282470703,30.5,-9999.0,null,null,null,true
C1890,CW1890 Ft. Frances                   CA,APRSWXNET,48.61199951171875,-93.4146728515625,335.0,-9999.0,null,null,null,true
MTNT,Miami TNT, FL,gpsmet,25.8700008392334,-80.91000366210938,3.700000047683716,-9999.0,null,null,null,true
C0569,CW0569 Jacksonville               FL US,APRSWXNET,30.361330032348633,-81.5596694946289,12.0,-9999.0,null,null,null,true
C0566,CW0566 Mullica Hill               NJ US,APRSWXNET,39.716670989990234,-75.21666717529297,25.0,-9999.0,null,null,null,true
C1898,CW1898 St. Paul                   MN US,APRSWXNET,44.99053955078125,-93.07656860351562,277.0,-9999.0,null,null,null,true
C0567,CW0567 Jyvaskyla                     FI,APRSWXNET,62.11750030517578,25.66716957092285,95.0,-9999.0,null,null,null,true
C1897,CW1897 Grass Valley               CA US,APRSWXNET,39.153831481933594,-121.13500213623047,534.0,-9999.0,null,null,null,true
HPDC1,HOPLAND UC,RAWS,39.03055953979492,-123.08055877685547,817.5,-9999.0,null,null,null,true
THFM8,Thompson Falls                   MT US MSOWFO,utmesnet,47.59000015258789,-115.31999969482422,737.5999755859375,-9999.0,null,null,null,true
MCN1,Macon, GA,ddmet,32.70000076293945,-83.55999755859375,87.54000091552734,-9999.0,null,null,null,true
CEST2,Clarendon 2W,WT-Meso,34.92491912841797,-100.93000030517578,864.4000244140625,-9999.0,null,null,null,true
C0573,CW0573 Brocton                    IL US,APRSWXNET,39.69717025756836,-87.93299865722656,218.0,-9999.0,null,null,null,true
HORC1,HORSE MEADOW                     CA US SNOTEL,utmesnet,38.83000183105469,-119.87999725341797,2630.699951171875,-9999.0,null,null,null,true
C0571,CW0571 Batavia                    IL US,APRSWXNET,41.84817123413086,-88.3143310546875,235.0,-9999.0,null,null,null,true
C0572,CW0572 Orlando                    FL US,APRSWXNET,28.54450035095215,-81.2979965209961,35.0,-9999.0,null,null,null,true
C0570,CW0570 Blue Lake                  CA US,APRSWXNET,41.042171478271484,-123.87632751464844,183.0,-9999.0,null,null,null,true
KNGS,Kingston, ON,ddmet,44.220001220703125,-76.5199966430664,83.26000213623047,-9999.0,null,null,null,true
C0577,CW0577 Elkridge                   MD US,APRSWXNET,39.20800018310547,-76.76866912841797,107.0,-9999.0,null,null,null,true
TSN,TEST AREA NORTH                  ID US ARL FRD,utmesnet,43.86000061035156,-112.7300033569336,1445.0999755859375,-9999.0,null,null,null,true
ELKW4,ELKHORN,RAWS,43.679161071777344,-109.61083221435547,2464.300048828125,-9999.0,null,null,null,true
OKMA1,OAKMULGEE,RAWS,32.956939697265625,-87.17056274414062,110.5999984741211,-9999.0,null,null,null,true
CRN,CAPITOL REEF NP                  UT US SNOWNET,utmesnet,38.289798736572266,-111.26190185546875,1799.800048828125,-9999.0,null,null,null,true
CRM,DAVIS CANYON                     UT US SNOWNET,utmesnet,40.33000183105469,-111.5780029296875,2621.0,-9999.0,null,null,null,true
C1873,CW1873 Groningen                     NL,APRSWXNET,53.25033187866211,6.584169864654541,0.0,-9999.0,null,null,null,true
C1872,CW1872 East Hartford              CT US,APRSWXNET,41.735328674316406,-72.59033203125,33.5,-9999.0,null,null,null,true
NP049,Newbold, PA,nosports,40.137001037597656,-74.75199890136719,0.0,-9999.0,null,null,null,true
TWATE,Waterville                       WA US WA DOT,utmesnet,47.650001525878906,-120.1500015258789,658.0999755859375,-9999.0,null,null,null,true
BLMM7,Bloomfield, MO,ddmet,36.880001068115234,-89.97000122070312,127.33999633789062,-9999.0,null,null,null,true
C0548,CW0548 Frisco                     TX US,APRSWXNET,33.2121696472168,-96.75332641601562,238.0,-9999.0,null,null,null,true
C0546,CW0546 Lincoln                    NE US,APRSWXNET,40.79050064086914,-96.63133239746094,381.0,-9999.0,null,null,null,true
C0547,CW0547 Westfield                  IN US,APRSWXNET,40.018829345703125,-86.13282775878906,270.0,-9999.0,null,null,null,true
C1877,CW1877 Mt. Juliet                 TN US,APRSWXNET,36.2783317565918,-86.54666900634766,154.0,-9999.0,null,null,null,true
MCON,McConnelsville, OH,gpsmet,39.65999984741211,-81.83000183105469,305.5400085449219,-9999.0,null,null,null,true
BAMN5,BATEMAN                          NM US SNOTEL,utmesnet,36.52000045776367,-106.31999969482422,2835.0,-9999.0,null,null,null,true
MCOW,COW CREEK  MT-13                 MT US MT DOT,utmesnet,47.650001525878906,-105.58000183105469,762.0,-9999.0,null,null,null,true
SQFO3,SQUAW PEAK,RAWS,42.06943893432617,-123.01167297363281,1513.0,-9999.0,null,null,null,true
NWTC,Rocky Flats Nat Wind Tech Ctr          NREL,internet,39.91360092163086,-105.24690246582031,1855.0,-9999.0,null,null,null,true
COPN5,SMOKEY BEAR,RAWS,33.349998474121094,-105.66665649414062,2103.10009765625,-9999.0,null,null,null,true
BHRC2,BIG HORN,RAWS,37.02056121826172,-106.20084381103516,2636.800048828125,-9999.0,null,null,null,true
NP035,Delaware City, DE,nosports,39.582000732421875,-75.58899688720703,0.0,-9999.0,null,null,null,true
JMPN7,Wrightsville Beach, NC,NOS-NWLON,34.209999084472656,-77.79499816894531,0.0,-9999.0,null,null,null,true
TWRW1,CHENEY,RAWS,47.41722106933594,-117.5280532836914,679.7000122070312,-9999.0,null,null,null,true
AFRG1,ATHENS,RAWS,33.896671295166016,-83.36554718017578,205.6999969482422,-9999.0,null,null,null,true
NP038,Cove Point, MD,nosports,38.43199920654297,-76.38700103759766,0.0,-9999.0,null,null,null,true
NFCW4,NORTH FRENCH CREEK               WY US SNOTEL,utmesnet,41.33000183105469,-106.37000274658203,3087.89990234375,-9999.0,null,null,null,true
TLAUR,Laurier                          WA US WA DOT,utmesnet,48.9900016784668,-118.22000122070312,0.0,-9999.0,null,null,null,true
QFSA3,FOUR SPRINGS,RAWS,36.793331146240234,-112.0425033569336,1999.5,-9999.0,null,null,null,true
MCNE,Lake Charles, LA,gpsmet,30.18000030517578,-93.22000122070312,17.350000381469727,-9999.0,null,null,null,true
C0555,CW0555 Omaha                      NE US,APRSWXNET,41.309669494628906,-96.0596694946289,300.0,-9999.0,null,null,null,true
C0556,CW0556 Stow                       MA US,APRSWXNET,42.40583038330078,-71.5270004272461,71.0,-9999.0,null,null,null,true
C1886,CW1886 Meriden                    CT US,APRSWXNET,41.52050018310547,-72.82830047607422,28.0,-9999.0,null,null,null,true
HOAC1,HOOPA,RAWS,41.04777908325195,-123.67138671875,114.30000305175781,-9999.0,null,null,null,true
C1852,CW1852 New Harbor                 ME US,APRSWXNET,43.875999450683594,-69.49433135986328,20.0,-9999.0,null,null,null,true
C0521,CW0521 Morecambe                     UK,APRSWXNET,54.06467056274414,-2.8580000400543213,18.0,-9999.0,null,null,null,true
C1851,CW1851 Cumming                    GA US,APRSWXNET,34.099998474121094,-84.22550201416016,323.0,-9999.0,null,null,null,true
PCPI1,PINE CREEK PASS                  ID US SNOTEL,utmesnet,43.56999969482422,-111.22000122070312,2048.0,-9999.0,null,null,null,true
SSMA2,SITE SUMMIT,RAWS,61.258060455322266,-149.52806091308594,1196.0,-9999.0,null,null,null,true
C0529,CW0529 West Paterson              NJ US,APRSWXNET,40.89500045776367,-74.20916748046875,43.0,-9999.0,null,null,null,true
C1859,CW1859 Sykesville                 MD US,APRSWXNET,39.37229919433594,-76.91560363769531,164.60000610351562,-9999.0,null,null,null,true
C0527,CW0527 Lexington                  VA US,APRSWXNET,37.81449890136719,-79.40699768066406,331.0,-9999.0,null,null,null,true
C0525,CW0525 Chesterton                    UK,APRSWXNET,53.04032897949219,-2.2528300285339355,168.0,-9999.0,null,null,null,true
C1855,CW1855 Liberal                    OR US,APRSWXNET,45.18600082397461,-122.58733367919922,81.69999694824219,-9999.0,null,null,null,true
BPYW4,SNIDER BASIN,RAWS,42.49055099487305,-110.52665710449219,2499.39990234375,-9999.0,null,null,null,true
TR351,FISHLAKE PORT #2,RAWS,38.519439697265625,-112.56916809082031,2200.10009765625,-9999.0,null,null,null,true
KNMM5,KABNAM,RAWS,48.44166946411133,-93.04972076416016,365.79998779296875,-9999.0,null,null,null,true
C0531,CW0531 Plainfield                 IL US,APRSWXNET,41.55683135986328,-88.23383331298828,189.0800018310547,-9999.0,null,null,null,true
CUR,MERCUR CANYON                    UT US TOOELE,utmesnet,40.306556701660156,-112.26092529296875,1749.9000244140625,-9999.0,null,null,null,true
C1861,CW1861 Thousand Oaks              CA US,APRSWXNET,34.175498962402344,-118.89299774169922,274.29998779296875,-9999.0,null,null,null,true
STPC2,STUMP LAKES                      CO US SNOTEL,utmesnet,37.47999954223633,-107.62999725341797,3414.10009765625,-9999.0,null,null,null,true
C0539,CW0539 Dansweiler                    DE,APRSWXNET,50.95800018310547,6.762499809265137,80.0,-9999.0,null,null,null,true
MVYU1,MERCHANT VALLEY                  UT US SNOTEL,utmesnet,38.29999923706055,-112.43000030517578,2667.0,-9999.0,null,null,null,true
C0537,CW0537 Bel Air                    MD US,APRSWXNET,39.50120162963867,-76.32170104980469,99.0999984741211,-9999.0,null,null,null,true
QYJA3,YELLOW JOHN MOUNTAI,RAWS,36.154998779296875,-113.54915618896484,1877.5999755859375,-9999.0,null,null,null,true
SEAW,Seattle, WA,ddmet,47.689998626708984,-122.26000213623047,18.020000457763672,-9999.0,null,null,null,true
C1864,CW1864 Anadarko                   OK US,APRSWXNET,35.051998138427734,-98.26416778564453,392.0,-9999.0,null,null,null,true
TOKO3,TOKETEE AIRSTRIP                 OR US SNOTEL,utmesnet,43.22999954223633,-122.41999816894531,987.5999755859375,-9999.0,null,null,null,true
COPM8,COPPER BOTTOM                    MT US SNOTEL,utmesnet,47.04999923706055,-112.5999984741211,1585.0,-9999.0,null,null,null,true
TABC1,LAS TABLAS,RAWS,35.65555953979492,-120.92278289794922,396.20001220703125,-9999.0,null,null,null,true
C0506,CW0506 Canton                     CT US,APRSWXNET,41.828880310058594,-72.90914916992188,112.80000305175781,-9999.0,null,null,null,true
C1837,CW1837 Whitby                    ONT CA,APRSWXNET,43.90782928466797,-78.9288330078125,109.69999694824219,-9999.0,null,null,null,true
C1836,CW1836 Bel Air                    MD US,APRSWXNET,39.527671813964844,-76.30033111572266,117.0,-9999.0,null,null,null,true
C0500,CW0500 Ashburnham                 MA US,APRSWXNET,42.680328369140625,-71.9663314819336,352.0,-9999.0,null,null,null,true
C1832,CW1832 Scottsdale                 AZ US,APRSWXNET,33.495330810546875,-111.90617370605469,419.0,-9999.0,null,null,null,true
OCVN4,EB FORSYTHE,RAWS,39.5,-74.5,4.599999904632568,-9999.0,null,null,null,true
MTSN2,MOUNTAIN SPRINGS,RAWS,36.03055953979492,-115.51667022705078,1706.9000244140625,-9999.0,null,null,null,true
C0508,CW0508 Troy                       NY US,APRSWXNET,42.74517059326172,-73.68383026123047,12.0,-9999.0,null,null,null,true
MCSO,Salem, OR,gpsmet,44.970001220703125,-122.95999908447266,75.80000305175781,-9999.0,null,null,null,true
C1839,CW1839 Catania                       IT,APRSWXNET,37.54750061035156,15.0841703414917,242.0,-9999.0,null,null,null,true
MISM8,Mission Dam                      MT US MSOWFO,utmesnet,47.310001373291016,-114.0199966430664,1036.0,-9999.0,null,null,null,true
C1841,CW1841 Riverton                   WY US,APRSWXNET,43.06467056274414,-108.47666931152344,1700.0,-9999.0,null,null,null,true
C1840,CW1840 Mustang                    OK US,APRSWXNET,35.38616943359375,-97.80449676513672,400.0,-9999.0,null,null,null,true
MGMI1,MAGIC MOUNTAIN                   ID US SNOTEL,utmesnet,42.18000030517578,-114.30000305175781,2097.0,-9999.0,null,null,null,true
C1849,CW1849 Corinth                    MS US,APRSWXNET,34.95249938964844,-88.50299835205078,143.0,-9999.0,null,null,null,true
WTHC1,WHITTIER HILLS,RAWS,33.983890533447266,-118.01000213623047,289.6000061035156,-9999.0,null,null,null,true
C1848,CW1848 Southern Shores            NC US,APRSWXNET,36.10533142089844,-75.7211685180664,11.199999809265137,-9999.0,null,null,null,true
WTHC3,WEST THOMPSON LAKE,HADS,41.944400787353516,-71.9000015258789,110.90599822998047,-9999.0,null,null,null,true
BUGC1,BLUE RIDGE (KNF),RAWS,41.269168853759766,-123.1875,1792.199951171875,-9999.0,null,null,null,true
C1845,CW1845 Lawrence                   KS US,APRSWXNET,38.940330505371094,-95.2768325805664,266.0,-9999.0,null,null,null,true
C1844,CW1844 Boulder Creek              CA US,APRSWXNET,37.12882995605469,-122.11332702636719,194.0,-9999.0,null,null,null,true
C1843,CW1843 Drexel Hill                PA US,APRSWXNET,39.95750045776367,-75.2896728515625,59.400001525878906,-9999.0,null,null,null,true
C1842,CW1842 Crewe                      VA US,APRSWXNET,37.18333053588867,-78.13533020019531,160.3000030517578,-9999.0,null,null,null,true
C0512,CW0512 Torino                        IT,APRSWXNET,45.033668518066406,7.668670177459717,227.0,-9999.0,null,null,null,true
HDRI3,HARDIN RIDGE,RAWS,39.0,-86.42278289794922,228.60000610351562,-9999.0,null,null,null,true
SPCW1,SPRING CANYON,RAWS,47.93444061279297,-118.9344482421875,408.3999938964844,-9999.0,null,null,null,true
FBYN1,Fairbury, NE,ddmet,40.08000183105469,-97.30999755859375,430.510009765625,-9999.0,null,null,null,true
FLEI1,FLECK SUMMIT,RAWS,43.619449615478516,-114.899169921875,1981.199951171875,-9999.0,null,null,null,true
ARDC1,REEDLEY COLLEGE                  CA US,utmesnet,36.60940170288086,-119.46189880371094,106.69999694824219,-9999.0,null,null,null,true
QBGA3,MERRITT ISLAND,RAWS,28.640560150146484,-80.73055267333984,9.100000381469727,-9999.0,null,null,null,true
NP077,Toledo, OH,nosports,41.69300079345703,-83.47200012207031,0.0,-9999.0,null,null,null,true
FCKO3,FISH CREEK                       OR US SNOTEL,utmesnet,42.70000076293945,-118.62999725341797,2407.89990234375,-9999.0,null,null,null,true
OXSI1,OXFORD SPRING                    ID US SNOTEL,utmesnet,42.27000045776367,-112.12999725341797,2054.10009765625,-9999.0,null,null,null,true
MYRC1,MEYERS,RAWS,38.8488883972168,-120.01889038085938,1923.300048828125,-9999.0,null,null,null,true
C1819,CW1819 Satellite Beach            FL US,APRSWXNET,28.201330184936523,-80.60066986083984,10.0,-9999.0,null,null,null,true
C1817,CW1817 Elkton                     MD US,APRSWXNET,39.58782958984375,-75.83782958984375,3.0,-9999.0,null,null,null,true
BCSN2,BIG CREEK SUM                    NV US SNOTEL,utmesnet,39.31999969482422,-117.12000274658203,2652.10009765625,-9999.0,null,null,null,true
C1826,CW1826 Silver Spring              MD US,APRSWXNET,39.042999267578125,-77.01200103759766,106.69999694824219,-9999.0,null,null,null,true
TLSC2,TRAPPER LAKE                     CO US SNOTEL,utmesnet,40.0,-107.2300033569336,2956.89990234375,-9999.0,null,null,null,true
C1824,CW1824 Langley                    WA US,APRSWXNET,47.99666976928711,-122.4800033569336,20.0,-9999.0,null,null,null,true
C1823,CW1823 Kirkland                   WA US,APRSWXNET,47.702999114990234,-122.23799896240234,60.0,-9999.0,null,null,null,true
T130T,130th Street                     WA US WA DOT,utmesnet,47.72999954223633,-122.31999969482422,107.9000015258789,-9999.0,null,null,null,true
C1820,CW1820 Westwood                   MA US,APRSWXNET,42.2121696472168,-71.16282653808594,54.0,-9999.0,null,null,null,true
TR320,ZIGZAG PORTABLE,RAWS,45.345279693603516,-121.93916320800781,434.29998779296875,-9999.0,null,null,null,true
CINW4,CINNABAR PARK                    WY US SNOTEL,utmesnet,41.2400016784668,-106.2300033569336,2954.10009765625,-9999.0,null,null,null,true
TR328,MINAM LODGE-PORTABL,RAWS,45.35388946533203,-117.63276672363281,1089.699951171875,-9999.0,null,null,null,true
KNS1,Kensington, SC,ddmet,33.47999954223633,-79.33999633789062,13.8100004196167,-9999.0,null,null,null,true
ESPC2,ESTES PARK,RAWS,40.366661071777344,-105.54972076416016,2383.5,-9999.0,null,null,null,true
ESPC1,ESPERANZA,RAWS,38.24306106567383,-120.51416778564453,765.7000122070312,-9999.0,null,null,null,true
MDDC1,MAD RIVER,RAWS,40.463050842285156,-123.52388763427734,845.7999877929688,-9999.0,null,null,null,true
GTWC1,GEORGETOWN RANGER STATION        CA US CNRFC,utmesnet,38.91667175292969,-120.76667022705078,990.9000244140625,-9999.0,null,null,null,true
HEDNA,Edna                             WA US HMMN,utmesnet,46.58700180053711,-119.39700317382812,125.0,-9999.0,null,null,null,true
BDEM6,BUDE,RAWS,31.41054916381836,-90.8466567993164,136.1999969482422,-9999.0,null,null,null,true
SYNO3,STAYTON,RAWS,44.79555892944336,-122.81416320800781,111.5999984741211,-9999.0,null,null,null,true
ZMBA2,ZAREMBO,RAWS,56.299720764160156,-132.84832763671875,274.29998779296875,-9999.0,null,null,null,true
KKUH1,KEAUMO,RAWS,19.473329544067383,-155.35888671875,1682.5,-9999.0,null,null,null,true
MOUC1,MOUNT ELIZABETH,RAWS,38.06306076049805,-120.24667358398438,1503.5999755859375,-9999.0,null,null,null,true
DEMC1,DEMOCRAT,RAWS,35.53166961669922,-118.63027954101562,725.4000244140625,-9999.0,null,null,null,true
C1800,CW1800 Basin                      WY US,APRSWXNET,44.37882995605469,-108.04499816894531,1180.0,-9999.0,null,null,null,true
TMEC1,TUOLUMNE,RAWS,37.86806106567383,-119.31916809082031,2804.199951171875,-9999.0,null,null,null,true
ELKM4,ELKHORN,RAWS,45.953330993652344,-86.40528106689453,219.5,-9999.0,null,null,null,true
TR309,GILA - PORTABLE,RAWS,32.72666931152344,-108.51805877685547,2103.10009765625,-9999.0,null,null,null,true
AR391,N8JE Sneads Ferry                 NC US,APRSWXNET,34.53916931152344,-77.39299774169922,6.0,-9999.0,null,null,null,true
AR392,K0NY-2 Winona                     MN US,APRSWXNET,44.0601692199707,-91.69216918945312,202.39999389648438,-9999.0,null,null,null,true
PIRC2,PINTO,RAWS,40.02056121826172,-108.39806365966797,2209.800048828125,-9999.0,null,null,null,true
AR390,KE6JDC Long Beach                 CA US,APRSWXNET,33.79199981689453,-118.10782623291016,8.84000015258789,-9999.0,null,null,null,true
AR395,WB0BBM Long Grove                 IA US,APRSWXNET,41.72467041015625,-90.48916625976562,205.6999969482422,-9999.0,null,null,null,true
AR394,N9ZWY-2 Prairie Du Chien          WI US,APRSWXNET,43.04600143432617,-91.14600372314453,195.0,-9999.0,null,null,null,true
GVLI1,Grangeville 1N                   ID US MSOWFO,utmesnet,45.939998626708984,-116.12000274658203,1008.9000244140625,-9999.0,null,null,null,true
AR388,KB8UNF Twin Lake                  MI US,APRSWXNET,43.36750030517578,-86.24282836914062,191.0,-9999.0,null,null,null,true
RRPN5,RED RIVER PASS #2                NM US SNOTEL,utmesnet,36.70000076293945,-105.33000183105469,3002.0,-9999.0,null,null,null,true
AR380,KC8YHQ Sanford                    MI US,APRSWXNET,43.671669006347656,-84.3826675415039,189.0,-9999.0,null,null,null,true
AR381,WA8RC-15 Battle Creek             MI US,APRSWXNET,42.35517120361328,-85.17500305175781,283.0,-9999.0,null,null,null,true
AR385,N1NAZ-1 Derry                     NH US,APRSWXNET,42.880828857421875,-71.31133270263672,89.19999694824219,-9999.0,null,null,null,true
AR382,K8SWR Battle Creek                MI US,APRSWXNET,42.45183181762695,-85.24250030517578,290.0,-9999.0,null,null,null,true
RNDA2,ROUND LAKE,RAWS,64.6844482421875,-153.93972778320312,173.6999969482422,-9999.0,null,null,null,true
AR378,WD8JVQ Petoskey                   MI US,APRSWXNET,45.36433029174805,-84.94049835205078,255.0,-9999.0,null,null,null,true
AR375,W4OSC Cope                        SC US,APRSWXNET,33.453670501708984,-81.0386734008789,59.0,-9999.0,null,null,null,true
AR376,N9QIP Arlington                   WI US,APRSWXNET,43.3371696472168,-89.38883209228516,323.0,-9999.0,null,null,null,true
DSVG1,DAWSONVILLE,RAWS,34.37638854980469,-84.05999755859375,369.70001220703125,-9999.0,null,null,null,true
COPC2,COPELAND LAKE                    CO US SNOTEL,utmesnet,40.20000076293945,-105.56999969482422,2621.0,-9999.0,null,null,null,true
QJOA3,JUMP-OFF RIDGE,RAWS,34.223331451416016,-110.34249877929688,2161.0,-9999.0,null,null,null,true
WHEI1,WHITE ELEPHANT                   ID US SNOTEL,utmesnet,44.529998779296875,-111.41999816894531,2350.0,-9999.0,null,null,null,true
AR397,K0MCA-4 California                MO US,APRSWXNET,38.55799865722656,-92.68167114257812,277.0,-9999.0,null,null,null,true
RNDC1,ROUND MOUNTAIN,RAWS,41.42694091796875,-121.4638900756836,1602.5999755859375,-9999.0,null,null,null,true
CPSC2,COLUMBINE PASS                   CO US SNOTEL,utmesnet,38.41999816894531,-108.37999725341797,2865.10009765625,-9999.0,null,null,null,true
AR351,ON7EQ-1 Brugge                       BE,APRSWXNET,51.090999603271484,3.1689999103546143,15.0,-9999.0,null,null,null,true
TR390,GMF1 MONTROSE 555,RAWS,38.48139190673828,-108.45639038085938,2573.10009765625,-9999.0,null,null,null,true
PRKW4,PARKER PEAK                      WY US SNOTEL,utmesnet,44.72999954223633,-109.91999816894531,2865.10009765625,-9999.0,null,null,null,true
AR345,KD5ZLP Rowlett                    TX US,APRSWXNET,32.935001373291016,-96.52916717529297,164.0,-9999.0,null,null,null,true
AR342,N2NZD Copake                      NY US,APRSWXNET,42.11199951171875,-73.5530014038086,167.89999389648438,-9999.0,null,null,null,true
AR343,WA1OUI West Simsbury              CT US,APRSWXNET,41.830169677734375,-72.86566925048828,94.5,-9999.0,null,null,null,true
AR348,KG4VVU Helena                     AL US,APRSWXNET,33.28300094604492,-86.84532928466797,137.0,-9999.0,null,null,null,true
AR346,TG9RB Guatemala City                 GT,APRSWXNET,14.533329963684082,-90.4333267211914,1881.0,-9999.0,null,null,null,true
AR347,KC5ZJO-1 Madison                  AL US,APRSWXNET,34.72690963745117,-86.7454605102539,235.0,-9999.0,null,null,null,true
CLWW4,COTTONWOOD CREEK                 WY US SNOTEL,utmesnet,42.52000045776367,-110.81999969482422,2315.89990234375,-9999.0,null,null,null,true
HDRT2,HENDERSON,RAWS,32.14971923828125,-94.79972076416016,152.39999389648438,-9999.0,null,null,null,true
DCC,DEER CREEK DAM CHUTE             UT US AVALANCHE,utmesnet,40.430999755859375,-111.54000091552734,2033.0,-9999.0,null,null,null,true
TWBI1,TWIN BUTTES,RAWS,42.69055938720703,-115.19526672363281,1021.0999755859375,-9999.0,null,null,null,true
HEOC,Hanford Emergency Operations Cen WA US HMMN,utmesnet,46.391998291015625,-119.53700256347656,378.0,-9999.0,null,null,null,true
I0110,Eastern Maine Shelf,GoMOOS,44.11000061035156,-68.11000061035156,0.0,-9999.0,null,null,null,true
LMDO3,LITTLE MEADOWS                   OR US SNOTEL,utmesnet,44.619998931884766,-122.22000122070312,1218.9000244140625,-9999.0,null,null,null,true
AR334,W4OZK-8 Collinsville              AL US,APRSWXNET,34.268470764160156,-85.80061340332031,366.0,-9999.0,null,null,null,true
AR332,WS3PC Coudersport                 PA US,APRSWXNET,41.7121696472168,-77.95050048828125,695.0,-9999.0,null,null,null,true
AR338,N3WKE Baltimore/Lansdowne         MD US,APRSWXNET,39.240299224853516,-76.64969635009766,38.099998474121094,-9999.0,null,null,null,true
AR335,KB0RF San Jose                    CA US,APRSWXNET,37.22949981689453,-121.8895034790039,85.0,-9999.0,null,null,null,true
AR370,K7RKT Lake Oswego                 OR US,APRSWXNET,45.431331634521484,-122.73400115966797,120.0,-9999.0,null,null,null,true
AR374,N8AVR Shields                     MI US,APRSWXNET,43.41320037841797,-84.05349731445312,181.39999389648438,-9999.0,null,null,null,true
BUFU1,BUCK FLAT                        UT US SNOTEL,utmesnet,39.130001068115234,-111.43000030517578,2987.0,-9999.0,null,null,null,true
AR372,KF4OVF Atlanta                    GA US,APRSWXNET,33.86582946777344,-84.42500305175781,274.0,-9999.0,null,null,null,true
KSLF1,Brooksville                            FAWN,FAWN,28.635000228881836,-82.28500366210938,24.68899917602539,-9999.0,null,null,null,true
MYRI1,MYRTLE CREEK                     ID US SNOTEL,utmesnet,48.720001220703125,-116.44999694824219,1072.9000244140625,-9999.0,null,null,null,true
EGLW4,EAGLE,RAWS,44.48554992675781,-109.89639282226562,2286.0,-9999.0,null,null,null,true
BGNN4,Bergen Point West Reach, NY,nosports,40.63999938964844,-74.14700317382812,0.0,-9999.0,null,null,null,true
FGFO3,P HILL  (FRENCHGLEN,RAWS,42.82638931274414,-118.93583679199219,1481.300048828125,-9999.0,null,null,null,true
KAGU1,KANE GULCH,RAWS,37.525550842285156,-109.89389038085938,2011.699951171875,-9999.0,null,null,null,true
AR366,KB9VSQ Reedsburg                  WI US,APRSWXNET,43.53116989135742,-89.98750305175781,276.0,-9999.0,null,null,null,true
AR367,KB0KQA Duluth                     MN US,APRSWXNET,46.994171142578125,-92.298828125,430.0,-9999.0,null,null,null,true
AR364,WA6GZC-1 Colorado Springs         CO US,APRSWXNET,38.810829162597656,-104.84950256347656,1831.0,-9999.0,null,null,null,true
AR365,KM6GE Allenspark                  CO US,APRSWXNET,40.180328369140625,-105.47750091552734,2512.0,-9999.0,null,null,null,true
LIZC2,LIZARD HEAD PASS                 CO US SNOTEL,utmesnet,37.79999923706055,-107.93000030517578,3109.0,-9999.0,null,null,null,true
AR368,WA0VSL Monument                   CO US,APRSWXNET,39.06216812133789,-104.7873306274414,2267.0,-9999.0,null,null,null,true
AR363,KC0MKS-10 Knife River             MN US,APRSWXNET,46.96649932861328,-91.78399658203125,299.0,-9999.0,null,null,null,true
TBELL,Cape Horn                        WA US WA DOT,utmesnet,45.56999969482422,-122.19999694824219,235.0,-9999.0,null,null,null,true
CLFU1,CLIFTON FLAT,RAWS,40.112220764160156,-113.87555694580078,1945.800048828125,-9999.0,null,null,null,true
TR381,TAOS PORTABLE #2,RAWS,36.748329162597656,-105.79556274414062,2780.39990234375,-9999.0,null,null,null,true
BCBC1,BLACKCAP BASIN                   CA US CNRFC,utmesnet,37.06666946411133,-118.76667022705078,3139.10009765625,-9999.0,null,null,null,true
CESC1,CHESTER,RAWS,40.2894401550293,-121.08528137207031,1379.199951171875,-9999.0,null,null,null,true
AR356,AG1C Westborough                  MA US,APRSWXNET,42.263999938964844,-71.5491714477539,95.0,-9999.0,null,null,null,true
AR354,W7PAQ Missoula                    MT US,APRSWXNET,46.81100082397461,-113.9366683959961,1360.9000244140625,-9999.0,null,null,null,true
AR357,WB1ETW Plainville                 MA US,APRSWXNET,42.00967025756836,-71.31582641601562,65.0,-9999.0,null,null,null,true
AR358,N1MZX Peterborough                NH US,APRSWXNET,42.84967041015625,-71.89299774169922,432.79998779296875,-9999.0,null,null,null,true
BNDC1,BEN LOMOND,RAWS,37.13167190551758,-122.16999816894531,801.5999755859375,-9999.0,null,null,null,true
SWKA2,SELAWIK,RAWS,66.60305786132812,-159.1125030517578,32.0,-9999.0,null,null,null,true
SOCI4,Oskaloosa                              KCCI-TV,snet,41.30179977416992,-92.65029907226562,245.39999389648438,-9999.0,null,null,null,true
CWHU1,CHEPETA                          UT US SNOTEL,utmesnet,40.77000045776367,-110.0,3139.10009765625,-9999.0,null,null,null,true
WDLM5,Wood Lake, MN,ddmet,44.66999816894531,-95.44999694824219,319.9599914550781,-9999.0,null,null,null,true
AR548,N9UMJ-11 Bedford                  IN US,APRSWXNET,38.862831115722656,-86.48249816894531,250.0,-9999.0,null,null,null,true
QGHA3,GRASSHOPPER,RAWS,34.10472106933594,-110.60555267333984,1947.699951171875,-9999.0,null,null,null,true
AR542,DK7IN-5 Berlin                       DE,APRSWXNET,52.595829010009766,13.37600040435791,300.0,-9999.0,null,null,null,true
AR543,KC2BRB-1 Clermont                 FL US,APRSWXNET,28.517669677734375,-81.71517181396484,57.900001525878906,-9999.0,null,null,null,true
PPHC1,PIT P H #3 (PGE)                 CA US CNRFC,utmesnet,41.0,-121.73332977294922,640.0999755859375,-9999.0,null,null,null,true
AR546,KL8DX-7 Healy                     AK US,APRSWXNET,63.83866882324219,-149.06832885742188,594.4000244140625,-9999.0,null,null,null,true
AR547,AI4EM Palm Beach Gardens          FL US,APRSWXNET,26.856670379638672,-80.09382629394531,6.099999904632568,-9999.0,null,null,null,true
ALDC1,ALDER POINT,RAWS,40.186668395996094,-123.59027862548828,281.29998779296875,-9999.0,null,null,null,true
WLCC2,WILLIS CREEK,RAWS,38.00278091430664,-105.05583190917969,2761.199951171875,-9999.0,null,null,null,true
AR537,KK6PA Ridgecrest                  CA US,APRSWXNET,35.64366912841797,-117.69000244140625,701.0,-9999.0,null,null,null,true
STRW1,STEHEKIN-AIRSTRIP,RAWS,48.3466682434082,-120.72028350830078,374.8999938964844,-9999.0,null,null,null,true
AR531,N7HAE Knappa                      OR US,APRSWXNET,46.16667175292969,-123.58332824707031,32.0,-9999.0,null,null,null,true
LSHI4,LOESS HILLS STATE F,RAWS,41.831939697265625,-95.92804718017578,326.1000061035156,-9999.0,null,null,null,true
AR530,WA1NHP Richmond                   NH US,APRSWXNET,42.75648880004883,-72.27043151855469,331.0,-9999.0,null,null,null,true
AR535,N5GE Arlington                    TX US,APRSWXNET,32.67300033569336,-97.18167114257812,191.0,-9999.0,null,null,null,true
LSHI1,CHOCOLATE GULCH                  ID US SNOTEL,utmesnet,43.77000045776367,-114.41999816894531,1962.9000244140625,-9999.0,null,null,null,true
AR536,N5KJT Edgewood                    NM US,APRSWXNET,35.04249954223633,-106.16449737548828,1989.0,-9999.0,null,null,null,true
RPLV2,Rappahannock Light, VA,nosports,37.53799819946289,-76.01499938964844,0.0,-9999.0,null,null,null,true
AR571,KK1W Brimfield                    MA US,APRSWXNET,42.154998779296875,-72.20850372314453,310.0,-9999.0,null,null,null,true
AR570,NN7RM Taylorsville                UT US,APRSWXNET,40.64820098876953,-111.94830322265625,1335.0,-9999.0,null,null,null,true
RTYC1,Redwood City, CA,nosports,37.50699996948242,-122.20999908447266,0.0,-9999.0,null,null,null,true
ONYC1,WALKER PASS,RAWS,35.665550231933594,-118.0566635131836,1698.300048828125,-9999.0,null,null,null,true
AR562,AF4JJ-9 Winchester                TN US,APRSWXNET,35.12017059326172,-86.06482696533203,315.0,-9999.0,null,null,null,true
AR563,W1DY Oklahoma City                OK US,APRSWXNET,35.57566833496094,-97.62982940673828,395.8999938964844,-9999.0,null,null,null,true
AR568,N6NKF Del Mar                     CA US,APRSWXNET,32.94533157348633,-117.24500274658203,73.19999694824219,-9999.0,null,null,null,true
NWHC3,New Haven, CT,nosports,41.28300094604492,-72.90799713134766,0.0,-9999.0,null,null,null,true
AR569,AG4FW White Bluff                 TN US,APRSWXNET,36.11832809448242,-87.22750091552734,245.0,-9999.0,null,null,null,true
AR566,KD7YVX Rigby                      ID US,APRSWXNET,43.706668853759766,-111.86782836914062,1485.0,-9999.0,null,null,null,true
GRSN5,GRANTS,RAWS,35.241661071777344,-107.66999816894531,2575.300048828125,-9999.0,null,null,null,true
TSILI,Silica Road                      WA US WA DOT,utmesnet,47.040000915527344,-119.91999816894531,374.0,-9999.0,null,null,null,true
AR561,DL1NER Herzogenaurach                DE,APRSWXNET,49.56583023071289,10.891670227050781,200.0,-9999.0,null,null,null,true
RNFO3,ROUND MOUNTAIN,RAWS,43.76388931274414,-121.71666717529297,1798.300048828125,-9999.0,null,null,null,true
GSSP,Glenville, WV,gpsmet,38.95000076293945,-80.83000183105469,269.6600036621094,-9999.0,null,null,null,true
RBTN2,RED BUTTE,RAWS,39.98305892944336,-117.3166732788086,1539.199951171875,-9999.0,null,null,null,true
BIVU1,BIG INDIAN VALLEY,RAWS,38.22417068481445,-109.2780532836914,2121.39990234375,-9999.0,null,null,null,true
AR559,AG2S Hillsborough                 NJ US,APRSWXNET,40.470001220703125,-74.58782958984375,36.599998474121094,-9999.0,null,null,null,true
AR553,KA4JMC Lake Zurich                IL US,APRSWXNET,42.185001373291016,-88.08483123779297,270.0,-9999.0,null,null,null,true
AR551,KG7EW Mendon                      UT US,APRSWXNET,41.740169525146484,-111.97516632080078,1378.0,-9999.0,null,null,null,true
AR558,AC5MR-1 Starkville                MS US,APRSWXNET,33.43149948120117,-88.80182647705078,103.5999984741211,-9999.0,null,null,null,true
SCQI4,Cresco                                 KIMT-TV,snet,43.3760986328125,-92.10310363769531,390.1000061035156,-9999.0,null,null,null,true
AR556,AA8MH Wilmington                  OH US,APRSWXNET,39.5,-83.80000305175781,313.29998779296875,-9999.0,null,null,null,true
CO091,No Name Tunnel (8),codotroad,39.55984115600586,-107.30546569824219,1889.0,-9999.0,null,null,null,true
CO092,Dowd Junction (10),codotroad,39.59678649902344,-106.43855285644531,2431.528076171875,-9999.0,null,null,null,true
CO093,McClure Pass (12),codotroad,39.13082504272461,-107.29000091552734,2883.8359375,-9999.0,null,null,null,true
CO094,Independence Pass (10),codotroad,39.10499954223633,-106.54261779785156,3588.843994140625,-9999.0,null,null,null,true
CO090,Bair Ranch (8),codotroad,39.62757110595703,-107.0999984741211,2340.0,-9999.0,null,null,null,true
AR506,N3PL Hockessin                    DE US,APRSWXNET,39.7983283996582,-75.67566680908203,97.5,-9999.0,null,null,null,true
CO088,Hanging Lake Viaduct (8),codotroad,39.61390686035156,-107.16999816894531,1944.0,-9999.0,null,null,null,true
CO089,French Creek (8),codotroad,39.60499954223633,-107.1500015258789,1932.0,-9999.0,null,null,null,true
AR504,KE3TW-1 White Hall                MD US,APRSWXNET,39.6254997253418,-76.64633178710938,173.6999969482422,-9999.0,null,null,null,true
AR505,AC5YO-10 Brambleton               VA US,APRSWXNET,38.98167037963867,-77.52783203125,100.5999984741211,-9999.0,null,null,null,true
CO084,Silt (7),codotroad,39.53602600097656,-107.69158935546875,1652.3890380859375,-9999.0,null,null,null,true
CO085,Shoshone Dam (8),codotroad,39.60063552856445,-107.16500091552734,1835.0,-9999.0,null,null,null,true
AR508,KG4USO Lakeland                   FL US,APRSWXNET,27.973220825195312,-81.92877197265625,59.099998474121094,-9999.0,null,null,null,true
CO086,West Tunnel Portal (8),codotroad,39.601219177246094,-107.18000030517578,2502.123046875,-9999.0,null,null,null,true
AR509,WA1TSS South Mills                NC US,APRSWXNET,36.454200744628906,-76.3010025024414,4.0,-9999.0,null,null,null,true
CO087,East Tunnel Portal (8),codotroad,39.60785675048828,-107.17500305175781,2491.093994140625,-9999.0,null,null,null,true
ASYU1,ASSAY,RAWS,37.51667022705078,-112.55555725097656,2468.89990234375,-9999.0,null,null,null,true
AR502,W0JAG-1 Poniciana                 FL US,APRSWXNET,28.171829223632812,-81.4903335571289,20.700000762939453,-9999.0,null,null,null,true
AR503,N4TVC Burke                       VA US,APRSWXNET,38.79132843017578,-77.25466918945312,94.48999786376953,-9999.0,null,null,null,true
AR500,KB0TVJ-8 Cody                     WY US,APRSWXNET,44.53300094604492,-109.03050231933594,1511.199951171875,-9999.0,null,null,null,true
YFFI1,BONANZA,RAWS,44.375,-114.5666732788086,1953.800048828125,-9999.0,null,null,null,true
BOGC1,BOGARD R.S.,RAWS,40.598060607910156,-121.08305358886719,1733.0999755859375,-9999.0,null,null,null,true
CO099,Canyon Creek (8),codotroad,39.55758285522461,-107.41999816894531,1825.0279541015625,-9999.0,null,null,null,true
HIBM5,HIBBING,RAWS,47.39167022705078,-92.83444213867188,411.5,-9999.0,null,null,null,true
CO095,Wolcott (8),codotroad,39.69316864013672,-106.68433380126953,2163.85888671875,-9999.0,null,null,null,true
CO096,DeBeque Canyon (7),codotroad,39.24177169799805,-108.23810577392578,1638.2449951171875,-9999.0,null,null,null,true
GRBO3,GERBER RESERVOIR,RAWS,42.20555114746094,-121.13804626464844,1499.5999755859375,-9999.0,null,null,null,true
CO097,Palisade (6),codotroad,39.121665954589844,-108.31983184814453,1490.0169677734375,-9999.0,null,null,null,true
CO098,Douglas Pass (3),codotroad,39.59183120727539,-108.802001953125,2461.805908203125,-9999.0,null,null,null,true
TGFI1,TRAIL GULCH,RAWS,42.30805969238281,-114.31804656982422,1737.4000244140625,-9999.0,null,null,null,true
MRPC1,MGROVE,RAWS,37.512779235839844,-119.60444641113281,1950.699951171875,-9999.0,null,null,null,true
SHOT1,SHILOH NMP,RAWS,35.154998779296875,-88.32166290283203,128.0,-9999.0,null,null,null,true
CO070,Vail Pass (34),codotroad,39.520713806152344,-106.3499984741211,3170.0,-9999.0,null,null,null,true
CO071,Floyd Hill (36),codotroad,39.720001220703125,-105.41500091552734,2413.509033203125,-9999.0,null,null,null,true
CO072,I-70 @ Bennett (45),codotroad,39.723453521728516,-104.46427917480469,1688.5999755859375,-9999.0,null,null,null,true
CO066,I-70 @ Cedar Point (46),codotroad,39.33807373046875,-103.84236145019531,1719.0,-9999.0,null,null,null,true
CO067,I-70 @ Seibert (91),codotroad,39.29999923706055,-102.87188720703125,1445.0,-9999.0,null,null,null,true
LGVI1,LONG VALLEY                      ID US SNOTEL,utmesnet,44.779998779296875,-116.08000183105469,1489.9000244140625,-9999.0,null,null,null,true
CO063,Monument Hill (84),codotroad,39.099998474121094,-104.8550033569336,2207.0,-9999.0,null,null,null,true
DENT2,LINDEN,RAWS,33.0,-94.79972076416016,152.39999389648438,-9999.0,null,null,null,true
CO064,Garden of the Gods (85),codotroad,38.89500045776367,-104.83000183105469,1932.0,-9999.0,null,null,null,true
CO065,I-70 @ Genesee (36),codotroad,39.709999084472656,-105.31999969482422,2255.0,-9999.0,null,null,null,true
DMC,DEAD MAN CANYON                  ID US ARL FRD,utmesnet,43.619998931884766,-113.05999755859375,1541.0999755859375,-9999.0,null,null,null,true
AR524,DG3SMA Leipzig                       DE,APRSWXNET,51.321170806884766,12.335169792175293,100.0,-9999.0,null,null,null,true
AR525,KG4FZO-7 Kissimmee                FL US,APRSWXNET,28.295000076293945,-81.41017150878906,20.0,-9999.0,null,null,null,true
AR523,NU7R Superior                     AZ US,APRSWXNET,33.297000885009766,-111.09783172607422,880.2999877929688,-9999.0,null,null,null,true
RCWM1,RACHEL CARSON - FTS,RAWS,43.279170989990234,-70.58944702148438,6.099999904632568,-9999.0,null,null,null,true
SHOS2,Howard                                 KELO-TV,snet,44.0099983215332,-97.5261001586914,342.0,-9999.0,null,null,null,true
HSPM8,Hot Springs                      MT US MSOWFO,utmesnet,47.61000061035156,-114.61000061035156,841.9000244140625,-9999.0,null,null,null,true
AR517,N4TKD Fayetteville                NC US,APRSWXNET,35.050331115722656,-79.05166625976562,79.19999694824219,-9999.0,null,null,null,true
AR516,KG4YZY-10 Port Richey             FL US,APRSWXNET,28.28282928466797,-82.711669921875,2.0,-9999.0,null,null,null,true
CO073,Surrey Ridge (41),codotroad,39.4900016784668,-104.8653335571289,1890.18701171875,-9999.0,null,null,null,true
CO074,Exit 191 (41),codotroad,39.51499938964844,-104.86499786376953,1844.2459716796875,-9999.0,null,null,null,true
AR510,N1IER Berkley                     MA US,APRSWXNET,41.84749984741211,-71.05332946777344,22.0,-9999.0,null,null,null,true
